防災行政無線_全国地方公共団体コード,施設_ID,設備_ID,防災行政無線_ID,防災行政無線_名称,防災行政無線_名称（カナ）,防災行政無線_名称（英字）,防災行政無線_説明,緯度,経度,防災行政無線_座標参照系,防災行政無線_座標参照系コード,防災行政無線_地区名,防災行政無線_URL,防災行政無線_備考
352071,,,musen0000001,市役所,シヤクショ,,親局,34.015,131.8702778,世界測地系,,中央地区,https://www.city.kudamatsu.lg.jp/soumu/bousaimusen.html,下松市大手町三丁目３番３号
352071,,,musen0000002,米川北老人集会所西,ヨネガワキタロウジンシュウカイショニシ,,,34.10361111,131.8770278,世界測地系,,米川地区,https://www.city.kudamatsu.lg.jp/soumu/bousaimusen.html,下松市下谷字亀山
352071,,,musen0000003,米川公民館東,ヨネガワコウミンカンヒガシ,,再送信子局、モーターサイレン,34.08580555,131.8813611,世界測地系,,米川地区,https://www.city.kudamatsu.lg.jp/soumu/bousaimusen.html,下松市大字瀬戸1006-3
352071,,,musen0000004,温見集会所北,ヌクミシュウカイショキタ,,,34.08163888,131.9018611,世界測地系,,米川地区,https://www.city.kudamatsu.lg.jp/soumu/bousaimusen.html,下松市大字温見317-6
352071,,,musen0000005,大藤谷老人集会所東,オオフジダニロウジンシュウカイショヒガシ,,,34.07502777,131.9165278,世界測地系,,米川地区,https://www.city.kudamatsu.lg.jp/soumu/bousaimusen.html,下松市大字大藤谷416-1
352071,,,musen0000006,瀬戸公園,セトコウエン,,,34.06245991,131.8802784,世界測地系,,米川地区,https://www.city.kudamatsu.lg.jp/soumu/bousaimusen.html,下松市大字瀬戸字田代
352071,,,musen0000007,花岡西老人集会所北,ハナオカニシロウジンシュウカイショキタ,,,34.04258333,131.8699444,世界測地系,,花岡地区,https://www.city.kudamatsu.lg.jp/soumu/bousaimusen.html,下松市大字末武上657-1
352071,,,musen0000008,東時宗児童広場,ヒガシトキムネジドウヒロバ,,,34.04144444,131.8819167,世界測地系,,花岡地区,https://www.city.kudamatsu.lg.jp/soumu/bousaimusen.html,下松市生野屋西3-1230-6
352071,,,musen0000009,緑ヶ丘市営住宅,ミドリガオカシエイジュウタク,,,34.0375,131.8613333,世界測地系,,花岡地区,https://www.city.kudamatsu.lg.jp/soumu/bousaimusen.html,下松市大字末武上940
352071,,,musen0000010,花岡公民館,ハナオカコウミンカン,,モーターサイレン,34.03588888,131.8736389,世界測地系,,花岡地区,https://www.city.kudamatsu.lg.jp/soumu/bousaimusen.html,下松市大字末武上1280-1
352071,,,musen0000011,生野屋コミュニティ広場,イクノヤコミュニティヒロバ,,,34.03719444,131.8896111,世界測地系,,花岡地区,https://www.city.kudamatsu.lg.jp/soumu/bousaimusen.html,下松市生野屋5-555-1
352071,,,musen0000012,山田老人集会所,ヤマダロウジンシュウカイショ,,,34.04194444,131.9078611,世界測地系,,久保地区,https://www.city.kudamatsu.lg.jp/soumu/bousaimusen.html,下松市山田542-7
352071,,,musen0000013,切山八幡宮西,キリヤマハチマングウニシ,,,34.04025,131.9229444,世界測地系,,久保地区,https://www.city.kudamatsu.lg.jp/soumu/bousaimusen.html,下松市大字切山391-5
352071,,,musen0000014,東陽小学校,トウヨウショウガッコウ,,再送信子局,34.03477777,131.9124167,世界測地系,,久保地区,https://www.city.kudamatsu.lg.jp/soumu/bousaimusen.html,下松市東陽4-17-1
352071,,,musen0000015,久保中学校,クボチュウガッコウ,,,34.0301668,131.8992727,世界測地系,,久保地区,https://www.city.kudamatsu.lg.jp/soumu/bousaimusen.html,下松市大字山田122
352071,,,musen0000016,久保公民館,クボコウミンカン,,,34.02769444,131.9021944,世界測地系,,久保地区,https://www.city.kudamatsu.lg.jp/soumu/bousaimusen.html,下松市大字河内583-1
352071,,,musen0000017,桃山第1児童広場,モモヤマダイ１ジドウヒロバ,,,34.02819444,131.9181111,世界測地系,,久保地区,https://www.city.kudamatsu.lg.jp/soumu/bousaimusen.html,下松市桃山町109-2
352071,,,musen0000018,東和児童広場,トウワジドウヒロバ,,,34.02808333,131.9241111,世界測地系,,久保地区,https://www.city.kudamatsu.lg.jp/soumu/bousaimusen.html,下松市東和1-91
352071,,,musen0000019,下松スポーツ公園,クダマツスポーツコウエン,,,34.02325,131.8853889,世界測地系,,久保地区,https://www.city.kudamatsu.lg.jp/soumu/bousaimusen.html,下松市大字河内140
352071,,,musen0000020,星が丘児童遊園,ホシガオカジドウユウエン,,,34.02113888,131.899,世界測地系,,久保地区,https://www.city.kudamatsu.lg.jp/soumu/bousaimusen.html,下松市星が丘2-1-7
352071,,,musen0000021,下松市農業公園,クダマツシノウギョウコウエン,,,34.01858333,131.9224722,世界測地系,,久保地区,https://www.city.kudamatsu.lg.jp/soumu/bousaimusen.html,下松市大字来巻601-2
352071,,,musen0000022,中村小学校,ナカムラショウガッコウ,,,34.02966666,131.8547222,世界測地系,,中村地区,https://www.city.kudamatsu.lg.jp/soumu/bousaimusen.html,下松市清瀬町2丁目6番1号
352071,,,musen0000023,中村総合福祉センター,ナカムラソウゴウフクシセンター,,モーターサイレン,34.02405555,131.8501944,世界測地系,,中村地区,https://www.city.kudamatsu.lg.jp/soumu/bousaimusen.html,下松市瑞穂町4丁目3番12号
352071,,,musen0000024,上藤光公園,カミトウミツコウエン,,,34.02938888,131.8683056,世界測地系,,末武地区,https://www.city.kudamatsu.lg.jp/soumu/bousaimusen.html,下松市藤光町2
352071,,,musen0000025,末武中学校,スエタケチュウガッコウ,,,34.02591666,131.8641389,世界測地系,,末武地区,https://www.city.kudamatsu.lg.jp/soumu/bousaimusen.html,下松市美里町1丁目8番1号
352071,,,musen0000026,末武公民館,スエタケコウミンカン,,,34.01855555,131.8571667,世界測地系,,末武地区,https://www.city.kudamatsu.lg.jp/soumu/bousaimusen.html,下松市潮音町1丁目1番2号
352071,,,musen0000027,豊井公民館,トヨイコウミンカン,,,34.00275,131.8750556,世界測地系,,豊井地区,https://www.city.kudamatsu.lg.jp/soumu/bousaimusen.html,下松市琴平町2丁目8番7号
352071,,,musen0000028,恋ヶ浜緑地公園,コイガハマリョクチコウエン,,モーターサイレン,33.99458333,131.8780278,世界測地系,,豊井地区,https://www.city.kudamatsu.lg.jp/soumu/bousaimusen.html,下松市大字東豊井551-3
352071,,,musen0000029,笠戸公民館,カサドコウミンカン,,モーターサイレン,33.97697222,131.8667222,世界測地系,,笠戸島地区,https://www.city.kudamatsu.lg.jp/soumu/bousaimusen.html,下松市大字笠戸島209番地
352071,,,musen0000030,大城第４駐車場,オオジョウダイ４チュウシャジョウ,,再送信子局,33.96869444,131.8478333,世界測地系,,笠戸島地区,https://www.city.kudamatsu.lg.jp/soumu/bousaimusen.html,下松市大字笠戸島14-1
352071,,,musen0000031,笠戸島公民館北,カサドシマコウミンカンキタ,,モーターサイレン,33.95316666,131.8508889,世界測地系,,笠戸島地区,https://www.city.kudamatsu.lg.jp/soumu/bousaimusen.html,下松市大字笠戸島172-2
352071,,,musen0000032,深浦公民館,フカウラコウミンカン,,モーターサイレン,33.94513888,131.8258056,世界測地系,,笠戸島地区,https://www.city.kudamatsu.lg.jp/soumu/bousaimusen.html,下松市大字笠戸島1117番地1
