ＮＯ,名称,名称カナ,住所,緯度,経度,管理先電話番号,市区町村コード,都道府県名,市区町村名,災害種別_洪水,災害種別_崖崩れ、土石流及び地滑り,災害種別_高潮,災害種別_地震,災害種別_津波,災害種別_大規模な火事,災害種別_内水氾濫,災害種別_火山現象,指定避難所との重複,想定収用人数,ＵＲＬ,備　考
1,養治小学校,ヨウジショウガッコウ,山口県下関市本町2丁目6－1,33.96527581,130.9484501,083-223-2358,35201,山口県,下関市,1,,1,1,1,,,,1,273(3㎡あたり1人）,http://www.city.shimonoseki.lg.jp/www/genre/0000000000000/1348559775376/index.html,
2,本行寺,ホンギョウジ,山口県下関市赤間町3－12,33.9600127,130.9425451,083-222-2406,35201,山口県,下関市,1,1,1,,1,,,,1,50(3㎡あたり1人）,http://www.city.shimonoseki.lg.jp/www/genre/0000000000000/1348559775376/index.html,
3,社会福祉センター,シャカイフクシセンター,山口県下関市貴船町3丁目4－1,33.96873541,130.9416504,083-232-2001,35201,山口県,下関市,1,,1,,1,,,,1,257(3㎡あたり1人）,http://www.city.shimonoseki.lg.jp/www/genre/0000000000000/1348559775376/index.html,
4,貴船公園,キブネコウエン,山口県下関市貴船町3丁目,33.96831477,130.9415394,083-231-1933,35201,山口県,下関市,1,,1,1,1,,,,,200(3㎡あたり1人）,http://www.city.shimonoseki.lg.jp/www/genre/0000000000000/1348559775376/index.html,
5,勤労福祉会館,キンロウフクシカイカン,山口県下関市幸町8-16,33.96075137,130.942372,083-231-1220,35201,山口県,下関市,1,1,,,1,,,,1,629(3㎡あたり1人）,http://www.city.shimonoseki.lg.jp/www/genre/0000000000000/1348559775376/index.html,
6,幸町公園,サイワイマチコウエン,山口県下関市幸町２１番,33.96295121,130.9448147,083-231-1933,35201,山口県,下関市,1,1,1,1,1,,,,,1300(3㎡あたり1人）,http://www.city.shimonoseki.lg.jp/www/genre/0000000000000/1348559775376/index.html,
7,火の山公園,ヒノヤマコウエン,山口県下関市みもすそ川町,33.97358305,130.95992,083-231-1933,35201,山口県,下関市,1,1,1,1,1,,,,,408333(3㎡あたり1人）,http://www.city.shimonoseki.lg.jp/www/genre/0000000000000/1348559775376/index.html,
8,名池小学校,メイチショウガッコウ,山口県下関市名池町１０－１,33.95855258,130.937343,083-223-1335,35201,山口県,下関市,1,,1,1,1,,,,1,295(3㎡あたり1人）,http://www.city.shimonoseki.lg.jp/www/genre/0000000000000/1348559775376/index.html,
9,王江小学校,オウエショウガッコウ,山口県下関市入江町9－1,33.95449854,130.9356614,083-222-0008,35201,山口県,下関市,1,,1,1,1,,,,1,243(3㎡あたり1人）,http://www.city.shimonoseki.lg.jp/www/genre/0000000000000/1348559775376/index.html,
10,文関小学校,ブンカンショウガッコウ,山口県下関市上田中町1丁目14－1,33.96654604,130.9378711,083-222-1433,35201,山口県,下関市,1,,1,1,1,,,,1,322(3㎡あたり1人）,http://www.city.shimonoseki.lg.jp/www/genre/0000000000000/1348559775376/index.html,
11,日新中学校,ニッシンチュウガッコウ,山口県下関市上田中町1丁目15－1,33.96781351,130.9373714,083-223-7259,35201,山口県,下関市,1,,1,1,1,,,,1,270(3㎡あたり1人）,http://www.city.shimonoseki.lg.jp/www/genre/0000000000000/1348559775376/index.html,
12,向洋中学校,コウヨウチュウガッコウ,山口県下関市向洋町1丁目14－1,33.96475833,130.930144,083-223-8208,35201,山口県,下関市,1,1,1,1,1,,,,1,397(3㎡あたり1人）,http://www.city.shimonoseki.lg.jp/www/genre/0000000000000/1348559775376/index.html,
13,下関運動公園,シモノセキウンドウコウエン,山口県下関市向洋町1丁目,33.96474609,130.9315148,083-231-1933,35201,山口県,下関市,1,1,1,1,1,,,,,41600(3㎡あたり1人）,http://www.city.shimonoseki.lg.jp/www/genre/0000000000000/1348559775376/index.html,
14,名陵中学校,メイリョウチュウガッコウ,山口県下関市丸山町1丁目13－3,33.9584003,130.9366873,083-222-1435,35201,山口県,下関市,1,1,1,1,1,,,,1,252(3㎡あたり1人）,http://www.city.shimonoseki.lg.jp/www/genre/0000000000000/1348559775376/index.html,
15,日和山公園,ヒヨリヤマコウエン,山口県下関市丸山町5丁目,33.95462541,130.9310782,083-231-1933,35201,山口県,下関市,1,,1,1,1,,,,,3666(3㎡あたり1人）,http://www.city.shimonoseki.lg.jp/www/genre/0000000000000/1348559775376/index.html,
16,生涯学習プラザ,ショウガイガクシュウプラザ,山口県下関市細江町3丁目1‐1,33.95138594,130.9302451,083-231-1234,35201,山口県,下関市,1,1,,1,1,,,,1,271(3㎡あたり1人）,http://www.city.shimonoseki.lg.jp/www/genre/0000000000000/1348559775376/index.html,
17,茶山集会所（憩の家隣）,チャヤマシュウカイショ（イコイノイエトナリ）,山口県下関市長門町１-１,33.95345361,130.9265716,083-231-9333,35201,山口県,下関市,1,1,1,1,1,,,,1,27(3㎡あたり1人）,http://www.city.shimonoseki.lg.jp/www/genre/0000000000000/1348559775376/index.html,
18,西部公民館,セイブコウミンカン,山口県下関市伊崎町1丁目4-30,33.95353248,130.9197835,083-231-6587,35201,山口県,下関市,1,1,,,1,,,,1,241(3㎡あたり1人）,http://www.city.shimonoseki.lg.jp/www/genre/0000000000000/1348559775376/index.html,
19,文洋中学校,ブンヨウチュウガッコウ,山口県下関市上新地町5丁目6－1,33.95791765,130.9134494,083-223-8176,35201,山口県,下関市,1,,1,1,1,,,,1,249(3㎡あたり1人）,http://www.city.shimonoseki.lg.jp/www/genre/0000000000000/1348559775376/index.html,
20,桜山小学校,サクラヤマショウガッコウ,山口県下関市上新地町2丁目5－10,33.96067917,130.9201798,083-222-2649,35201,山口県,下関市,1,,1,1,1,,,,1,261(3㎡あたり1人）,http://www.city.shimonoseki.lg.jp/www/genre/0000000000000/1348559775376/index.html,
21,桜山近隣公園,サクラヤマキンリンコウエン,山口県下関市上新地町2丁目,33.96219052,130.9203412,083-231-1933,35201,山口県,下関市,1,,1,1,1,,,,,3333(3㎡あたり1人）,http://www.city.shimonoseki.lg.jp/www/genre/0000000000000/1348559775376/index.html,
22,神田小学校,カンダショウガッコウ,山口県下関市西神田町5－1,33.96007219,130.9229468,083-222-6795,35201,山口県,下関市,1,,1,1,1,,,,1,267(3㎡あたり1人）,http://www.city.shimonoseki.lg.jp/www/genre/0000000000000/1348559775376/index.html,
23,関西小学校,カンサイショウガッコウ,山口県下関市関西町12－1,33.95793097,130.9270496,083-222-3166,35201,山口県,下関市,1,,1,1,1,,,,1,321(3㎡あたり1人）,http://www.city.shimonoseki.lg.jp/www/genre/0000000000000/1348559775376/index.html,
24,大和町漁港町内会事務所,ヤマトマチギョコウチョウナイカイジムショ,山口県下関市大和町1丁目5－10,33.94800916,130.9197741,083-267-4898,35201,山口県,下関市,1,1,,,1,,,,1,30(3㎡あたり1人）,http://www.city.shimonoseki.lg.jp/www/genre/0000000000000/1348559775376/index.html,
25,公益社団法人下関市ｼﾙﾊﾞｰ人材ｾﾝﾀｰ,コウエキシャダンホウジンシモノセキシシルバージンザイセンター,山口県下関市東大和町2丁目4－3,33.94148879,130.9190673,083-267-5900,35201,山口県,下関市,1,1,,,1,,,,1,50(3㎡あたり1人）,http://www.city.shimonoseki.lg.jp/www/genre/0000000000000/1348559775376/index.html,
26,下関市民会館,シモノセキシミンカイカン,山口県下関市竹崎町4丁目5-1,33.94875571,130.9253547,083-231-6401,35201,山口県,下関市,1,1,,1,1,,,,1,3771(3㎡あたり1人）,http://www.city.shimonoseki.lg.jp/www/genre/0000000000000/1348559775376/index.html,
27,金比羅公園,コンピラコウエン,山口県下関市金比羅町,33.96916223,130.9158151,083-231-1933,35201,山口県,下関市,1,,1,1,1,,,,,36666(3㎡あたり1人）,http://www.city.shimonoseki.lg.jp/www/genre/0000000000000/1348559775376/index.html,
28,複合福祉施設フロイデ金比羅,フクゴウフクシシセツフロイデコンピラ,山口県下関市金比羅町10-1,33.9698671,130.9171779,083-231-9333,35201,山口県,下関市,1,1,1,1,1,,,,1,51(3㎡あたり1人）,http://www.city.shimonoseki.lg.jp/www/genre/0000000000000/1348559775376/index.html,
29,幡生保育園,ハタブホイクエン,山口県下関市幡生宮の下町25－13,33.9847506,130.9317994,083-253-5656,35201,山口県,下関市,1,1,1,,1,,,,1,114(3㎡あたり1人）,http://www.city.shimonoseki.lg.jp/www/genre/0000000000000/1348559775376/index.html,
30,生野小学校,イクノショウガッコウ,山口県下関市幡生本町7－14,33.97807295,130.9286527,083-252-2044,35201,山口県,下関市,1,1,1,1,1,,,,1,309(3㎡あたり1人）,http://www.city.shimonoseki.lg.jp/www/genre/0000000000000/1348559775376/index.html,
31,幡生宮の下近隣公園,ハタブミヤノシタキンリンコウエン,山口県下関市幡生宮の下町,33.98163443,130.9308743,083-231-1933,35201,山口県,下関市,1,1,1,1,1,,,,,4600(3㎡あたり1人）,http://www.city.shimonoseki.lg.jp/www/genre/0000000000000/1348559775376/index.html,
32,向山小学校,ムカイヤマショウガッコウ,山口県下関市向山町14－1,33.96766093,130.9259498,083-223-8366,35201,山口県,下関市,1,,1,1,1,,,,1,312(3㎡あたり1人）,http://www.city.shimonoseki.lg.jp/www/genre/0000000000000/1348559775376/index.html,
33,山の田中学校,ヤマノタチュウガッコウ,山口県下関市山の田本町8－1,33.9893755,130.9271175,083-252-0488,35201,山口県,下関市,1,1,1,1,1,,,,1,328(3㎡あたり1人）,http://www.city.shimonoseki.lg.jp/www/genre/0000000000000/1348559775376/index.html,
34,下関商業高等学校,シモノセキショウギョウコウトウガッコウ,山口県下関市後田町4丁目11－1,33.97331548,130.9278419,083-223-4278,35201,山口県,下関市,1,,1,1,1,,,,1,1061(3㎡あたり1人）,http://www.city.shimonoseki.lg.jp/www/genre/0000000000000/1348559775376/index.html,
35,一里山公園,イチリヤマコウエン,山口県下関市椋野町1丁目,33.97404901,130.9419229,083-231-1933,35201,山口県,下関市,1,,1,1,1,,,,,54000(3㎡あたり1人）,http://www.city.shimonoseki.lg.jp/www/genre/0000000000000/1348559775376/index.html,
36,椋野町民館,ムクノチョウミンカン,山口県下関市椋野町2丁目13－4,33.97619804,130.9476856,083-224-2512,35201,山口県,下関市,1,1,1,,1,,,,1,40(3㎡あたり1人）,http://www.city.shimonoseki.lg.jp/www/genre/0000000000000/1348559775376/index.html,
37,三河公園,ミカワコウエン,山口県下関市三河町１５番,33.98591305,130.9421576,083-231-1933,35201,山口県,下関市,1,1,1,1,1,,,,,1833(3㎡あたり1人）,http://www.city.shimonoseki.lg.jp/www/genre/0000000000000/1348559775376/index.html,
38,伝武館,デンブカン,山口県下関市武久町1丁目57－10,33.98133822,130.9235657,083-251-6678,35201,山口県,下関市,1,1,1,,1,,,,1,40(3㎡あたり1人）,http://www.city.shimonoseki.lg.jp/www/genre/0000000000000/1348559775376/index.html,
39,武久永命寺公園,タケヒサヨウメイジコウエン,山口県下関市武久町1丁目,33.98121124,130.9219684,083-231-1933,35201,山口県,下関市,1,1,1,1,1,,,,,533(3㎡あたり1人）,http://www.city.shimonoseki.lg.jp/www/genre/0000000000000/1348559775376/index.html,
40,武久会館,タケヒサカイカン,山口県下関市武久町2丁目24-5,33.97958922,130.917519,083-252-0971,35201,山口県,下関市,1,1,,1,,,,,1,50(3㎡あたり1人）,http://www.city.shimonoseki.lg.jp/www/genre/0000000000000/1348559775376/index.html,
41,西の尾団地集会所,ニシノオダンチシュウカイショ,山口県下関市後田町5丁目2－5,33.97120302,130.9304999,083-232-9584,35201,山口県,下関市,1,1,1,1,1,,,,1,40(3㎡あたり1人）,http://www.city.shimonoseki.lg.jp/www/genre/0000000000000/1348559775376/index.html,
42,戦場ヶ原公園,センジョウガハラコウエン,山口県下関市後田町5丁目,33.9757183,130.9315379,083-231-1933,35201,山口県,下関市,1,,1,1,1,,,,,58000(3㎡あたり1人）,http://www.city.shimonoseki.lg.jp/www/genre/0000000000000/1348559775376/index.html,
43,大坪ふれあい会館,オオツボフレアイカイカン,山口県下関市藤附町2－4,33.96669671,130.9216193,083-231-9333,35201,山口県,下関市,1,1,1,1,1,,,,1,70(3㎡あたり1人）,http://www.city.shimonoseki.lg.jp/www/genre/0000000000000/1348559775376/index.html,
44,下関市立大学,シモノセキシリツダイガク,山口県下関市大学町2丁目1－1,33.9878409,130.9346937,083-252-0288,35201,山口県,下関市,1,,1,1,1,,,,1,1092(3㎡あたり1人）,http://www.city.shimonoseki.lg.jp/www/genre/0000000000000/1348559775376/index.html,
45,権現山公園,ゴンゲンヤマコウエン,山口県下関市大学町3丁目,33.99024689,130.9378491,083-231-1933,35201,山口県,下関市,1,,1,1,1,,,,,9333(3㎡あたり1人）,http://www.city.shimonoseki.lg.jp/www/genre/0000000000000/1348559775376/index.html,
46,えのき公園,エノキコウエン,山口県下関市稗田中町５番,33.99614034,130.9275269,083-231-1933,35201,山口県,下関市,1,1,1,1,1,,,,,1500(3㎡あたり1人）,http://www.city.shimonoseki.lg.jp/www/genre/0000000000000/1348559775376/index.html,
47,北部公民館,ホクブコウミンカン,山口県下関市山の田東町4－13,33.9860173,130.9282923,083-253-3371,35201,山口県,下関市,1,1,1,,1,,,,1,227(3㎡あたり1人）,http://www.city.shimonoseki.lg.jp/www/genre/0000000000000/1348559775376/index.html,
48,勤労婦人センター,キンロウフジンセンター,山口県下関市山の田東町4－13,33.98600543,130.9283406,083-253-2518,35201,山口県,下関市,1,1,1,,1,,,,1,202(3㎡あたり1人）,http://www.city.shimonoseki.lg.jp/www/genre/0000000000000/1348559775376/index.html,
49,山の田小学校,ヤマノタショウガッコウ,山口県下関市山の田中央町13－1,33.98756075,130.9253419,083-252-3735,35201,山口県,下関市,1,1,1,1,1,,,,1,270(3㎡あたり1人）,http://www.city.shimonoseki.lg.jp/www/genre/0000000000000/1348559775376/index.html,
50,下関市民センター,シモノセキシミンセンター,山口県下関市東神田町9－1,33.96112344,130.9271313,083-231-9616,35201,山口県,下関市,1,1,1,1,1,,,,1,353(3㎡あたり1人）,http://www.city.shimonoseki.lg.jp/www/genre/0000000000000/1348559775376/index.html,
51,下関西高等学校,シモノセキニシコウトウガッコウ,山口県下関市後田町4丁目10-1,33.97250607,130.9292294,083-222-0892,35201,山口県,下関市,1,1,1,1,1,,,,1,653(3㎡あたり1人）,http://www.city.shimonoseki.lg.jp/www/genre/0000000000000/1348559775376/index.html,
52,下関南高等学校,シモノセキミナミコウトウガッコウ,山口県下関市後田町1丁目8-1,33.96900955,130.9318833,083-222-4039,35201,山口県,下関市,1,,1,1,1,,,,1,551(3㎡あたり1人）,http://www.city.shimonoseki.lg.jp/www/genre/0000000000000/1348559775376/index.html,
53,下関中央工業高等学校,シモノセキチュウオウコウギョウコウトウガッコウ,山口県下関市後田町4丁目25-1,33.97370111,130.9249618,083-223-4117,35201,山口県,下関市,1,,1,1,1,,,,1,563(3㎡あたり1人）,http://www.city.shimonoseki.lg.jp/www/genre/0000000000000/1348559775376/index.html,
54,下関南総合支援学校,シモノセキミナミソウゴウシエンガッコウ,山口県下関市幡生町1丁目1-22,33.97631119,130.9377552,083-232-1431,35201,山口県,下関市,1,,1,1,1,,,,1,264(3㎡あたり1人）,http://www.city.shimonoseki.lg.jp/www/genre/0000000000000/1348559775376/index.html,
55,彦島公民館,ヒコシマコウミンカン,山口県下関市彦島江の浦町1丁目3－1,33.93709673,130.9144519,083-267-1344,35201,山口県,下関市,1,1,1,1,1,,,,1,415(3㎡あたり1人）,http://www.city.shimonoseki.lg.jp/www/genre/0000000000000/1348559775376/index.html,
56,江浦小学校,エノウラショウガッコウ,山口県下関市彦島江の浦町3丁目4－1,33.93007637,130.914831,083-266-0067,35201,山口県,下関市,1,1,,1,1,,,,1,306(3㎡あたり1人）,http://www.city.shimonoseki.lg.jp/www/genre/0000000000000/1348559775376/index.html,
57,彦島第二保育園,ヒコシマダイニホイクエン,山口県下関市彦島西山町1丁目10－7,33.94385569,130.8862451,083-266-3834,35201,山口県,下関市,,1,,1,,,,,1,84(3㎡あたり1人）,http://www.city.shimonoseki.lg.jp/www/genre/0000000000000/1348559775376/index.html,
58,山中町民館,ヤマナカチョウミンカン,山口県下関市彦島山中町2丁目4－9,33.92267188,130.9207224,083-266-2670,35201,山口県,下関市,1,1,1,1,1,,,,1,50(3㎡あたり1人）,http://www.city.shimonoseki.lg.jp/www/genre/0000000000000/1348559775376/index.html,
59,老町公会堂,オイマチコウカイドウ,山口県下関市彦島老町1丁目10－24,33.94645285,130.9129315,083-266-2301,35201,山口県,下関市,1,,,,1,,,,1,40(3㎡あたり1人）,http://www.city.shimonoseki.lg.jp/www/genre/0000000000000/1348559775376/index.html,
60,老の山公園,オイノヤマコウエン,山口県下関市彦島老の山公園,33.94630501,130.904249,083-231-1933,35201,山口県,下関市,1,,1,1,1,,,,,67766(3㎡あたり1人）,http://www.city.shimonoseki.lg.jp/www/genre/0000000000000/1348559775376/index.html,
61,本村公会堂,ホンムラコウカイドウ,山口県下関市彦島本村町5丁目4－7,33.94212284,130.9110664,083-266-2219,35201,山口県,下関市,1,1,,,1,,,,1,50(3㎡あたり1人）,http://www.city.shimonoseki.lg.jp/www/genre/0000000000000/1348559775376/index.html,
62,角倉小学校,スマクラショウガッコウ,山口県下関市彦島角倉町3丁目5－5,33.92484563,130.9157738,083-266-0718,35201,山口県,下関市,1,,1,1,1,,,,1,348(3㎡あたり1人）,http://www.city.shimonoseki.lg.jp/www/genre/0000000000000/1348559775376/index.html,
63,角倉町民館,スマクラチョウミンカン,山口県下関市彦島角倉町3丁目3－28,33.92629086,130.9165995,083-267-5551,35201,山口県,下関市,1,1,,1,1,,,,1,50(3㎡あたり1人）,http://www.city.shimonoseki.lg.jp/www/genre/0000000000000/1348559775376/index.html,
64,船員宿舎,センインシュクシャ,山口県下関市大字六連島字空方137-2,33.97475363,130.865246,083-261-1010 ,35201,山口県,下関市,1,,1,,1,,,,1,15(3㎡あたり1人）,http://www.city.shimonoseki.lg.jp/www/genre/0000000000000/1348559775376/index.html,
65,本村小学校,ホンムラショウガッコウ,山口県下関市彦島本村町3丁目16－1,33.9451857,130.9101341,083-266-3288,35201,山口県,下関市,1,1,1,1,1,,,,1,268(3㎡あたり1人）,http://www.city.shimonoseki.lg.jp/www/genre/0000000000000/1348559775376/index.html,
66,彦島地区公園,ヒコシマチクコウエン,山口県下関市彦島迫町4丁目,33.93896774,130.9046537,083-231-1933,35201,山口県,下関市,1,,1,1,1,,,,,20000(3㎡あたり1人）,http://www.city.shimonoseki.lg.jp/www/genre/0000000000000/1348559775376/index.html,
67,西山小学校,ニシヤマショウガッコウ,山口県下関市彦島迫町5丁目13－21,33.942446,130.8960723,083-266-0159,35201,山口県,下関市,1,1,1,1,1,,,,1,296(3㎡あたり1人）,http://www.city.shimonoseki.lg.jp/www/genre/0000000000000/1348559775376/index.html,
68,向井小学校,ムカイショウガッコウ,山口県下関市彦島向井町2丁目20－1,33.91729928,130.9178797,083-267-6700,35201,山口県,下関市,1,1,1,1,1,,,,1,296(3㎡あたり1人）,http://www.city.shimonoseki.lg.jp/www/genre/0000000000000/1348559775376/index.html,
69,彦島中学校,ヒコシマチュウガッコウ,山口県下関市彦島江の浦町2丁目25－1,33.93361788,130.9113156,083-266-5266,35201,山口県,下関市,1,,1,1,1,,,,1,272(3㎡あたり1人）,http://www.city.shimonoseki.lg.jp/www/genre/0000000000000/1348559775376/index.html,
70,玄洋中学校,ゲンヨウチュウガッコウ,山口県下関市彦島本村町2丁目8－1,33.94299707,130.9062956,083-266-3269,35201,山口県,下関市,1,1,1,1,1,,,,1,380(3㎡あたり1人）,http://www.city.shimonoseki.lg.jp/www/genre/0000000000000/1348559775376/index.html,
71,玄洋公民館,ゲンヨウコウミンカン,山口県下関市彦島西山町4丁目1－28,33.94640362,130.8829471,083-266-5455,35201,山口県,下関市,1,1,,1,1,,,,1,433(3㎡あたり1人）,http://www.city.shimonoseki.lg.jp/www/genre/0000000000000/1348559775376/index.html,
72,江の浦町民館,エノウラチョウミンカン,山口県下関市彦島江の浦町6丁目4-5,33.93648249,130.9184782,083-267-0246,35201,山口県,下関市,1,1,,1,1,,,,1,50(3㎡あたり1人）,http://www.city.shimonoseki.lg.jp/www/genre/0000000000000/1348559775376/index.html,
73,フロイデ彦島,フロイデヒコシマ,山口県下関市彦島西山町3丁目12-1,33.94465749,130.8798725,083-261-5081,35201,山口県,下関市,1,,1,1,1,,,,1,30(3㎡あたり1人）,http://www.city.shimonoseki.lg.jp/www/genre/0000000000000/1348559775376/index.html,
74,下関中等教育学校,シモノセキチュウトウキョウイクガッコウ,山口県下関市彦島老町2丁目21-1,33.94799656,130.9062869,083-266-4100,35201,山口県,下関市,1,,1,1,1,,,,1,694(3㎡あたり1人）,http://www.city.shimonoseki.lg.jp/www/genre/0000000000000/1348559775376/index.html,
75,彦島南公園,ヒコシマミナミコウエン,山口県下関市彦島弟子待町3丁目,33.91574446,130.9224537,083-231-1933,35201,山口県,下関市,1,1,1,1,1,,,,,32333(3㎡あたり1人）,http://www.city.shimonoseki.lg.jp/www/genre/0000000000000/1348559775376/index.html,
76,西山町自治会館,ニシヤマチョウジチカイカン,山口県下関市彦島西山町１丁目９－２９,33.94337022,130.8875849,083-266-4426,35201,山口県,下関市,1,1,1,1,1,,,,1,95(3㎡あたり1人）,http://www.city.shimonoseki.lg.jp/www/genre/0000000000000/1348559775376/index.html,
77,京野第２公園,キョウノダイ２コウエン,山口県下関市彦島塩浜町3丁目,33.91741733,130.9095185,083-231-1933,35201,山口県,下関市,1,1,1,1,1,,,,,400(3㎡あたり1人）,http://www.city.shimonoseki.lg.jp/www/genre/0000000000000/1348559775376/index.html,
78,福浦第２公園,フクウラダイ２コウエン,山口県下関市彦島福浦町1丁目,33.92769906,130.9047446,083-231-1933,35201,山口県,下関市,1,,1,1,1,,,,,100(3㎡あたり1人）,http://www.city.shimonoseki.lg.jp/www/genre/0000000000000/1348559775376/index.html,
79,彦島体育館,ヒコシマタイイクカン,山口県下関市彦島迫町4丁目16-1,33.9385003,130.9031146,083-231-9333,35201,山口県,下関市,1,,1,1,1,,,,1,420(3㎡あたり1人）,http://www.city.shimonoseki.lg.jp/www/genre/0000000000000/1348559775376/index.html,
80,特別養護老人ホーム アイユウの苑,トクベツヨウゴロウジンホーム アイユウノソノ,山口県下関市彦島迫町3丁目17-2,33.9383248,130.8983747,083-266-8287,35201,山口県,下関市,1,,1,1,1,,,,1,137(3㎡あたり1人）,http://www.city.shimonoseki.lg.jp/www/genre/0000000000000/1348559775376/index.html,
81,豊浦高等学校,トヨウラコウトウガッコウ,山口県下関市長府宮崎町１－１,33.99120307,130.9921642,083-245-2161,35201,山口県,下関市,1,1,,1,1,,,,1,510(3㎡あたり1人）,http://www.city.shimonoseki.lg.jp/www/genre/0000000000000/1348559775376/index.html,
82,関見台公園,セキミダイコウエン,山口県下関市長府宮崎町,33.98943509,130.9940063,083-231-1933,35201,山口県,下関市,1,,1,1,1,,,,,9666(3㎡あたり1人）,http://www.city.shimonoseki.lg.jp/www/genre/0000000000000/1348559775376/index.html,
83,長府中学校,チョウフチュウガッコウ,山口県下関市長府逢坂町3－1,33.99800971,130.9824176,083-246-2157,35201,山口県,下関市,1,,1,1,1,,,,1,411(3㎡あたり1人）,http://www.city.shimonoseki.lg.jp/www/genre/0000000000000/1348559775376/index.html,
84,豊浦小学校,トヨウラショウガッコウ,山口県下関市長府亀の甲2丁目2－1,34.00305167,130.9885685,083-246-1681,35201,山口県,下関市,1,1,1,1,1,,,,1,468(3㎡あたり1人）,http://www.city.shimonoseki.lg.jp/www/genre/0000000000000/1348559775376/index.html,
85,長府小学校,チョウフショウガッコウ,山口県下関市長府松小田北町14－1,34.02117045,130.9963831,083-246-0920,35201,山口県,下関市,1,,1,1,1,,,,1,377(3㎡あたり1人）,http://www.city.shimonoseki.lg.jp/www/genre/0000000000000/1348559775376/index.html,
86,長府第２保育園,チョウフダイ２ホイクエン,山口県下関市長府中六波町12－26,34.01322072,130.9914301,083-245-0044,35201,山口県,下関市,1,1,1,,1,,,,1,84(3㎡あたり1人）,http://www.city.shimonoseki.lg.jp/www/genre/0000000000000/1348559775376/index.html,
87,長府公民館,チョウフコウミンカン,山口県下関市長府土居の内町1－6,33.99886123,130.9907888,"083-245-0121（支所）
083-246-3413",35201,山口県,下関市,1,1,1,1,1,,,,1,220(3㎡あたり1人）,http://www.city.shimonoseki.lg.jp/www/genre/0000000000000/1348559775376/index.html,
88,すみれ保育園,スミレホイクエン,山口県下関市前田1丁目9－1,33.97426699,130.9698823,083-246-3413,35201,山口県,下関市,1,,1,1,1,,,,1,105(3㎡あたり1人）,http://www.city.shimonoseki.lg.jp/www/genre/0000000000000/1348559775376/index.html,
89,長成中学校,チョウセイチュウガッコウ,山口県下関市長府日の出町4－1,34.01570706,130.9936519,083-245-6490,35201,山口県,下関市,1,,1,1,1,,,,1,708(3㎡あたり1人）,http://www.city.shimonoseki.lg.jp/www/genre/0000000000000/1348559775376/index.html,
90,長府東公民館,チョウフヒガシコウミンカン,山口県下関市長府松小田本町4－15,34.01910239,130.9997692,083-246-1266,35201,山口県,下関市,1,1,1,1,1,,,,1,273(3㎡あたり1人）,http://www.city.shimonoseki.lg.jp/www/genre/0000000000000/1348559775376/index.html,
91,長府運動場,チョウフウンドウジョウ,山口県下関市長府江下町,34.01184498,130.9962857,083-231-2739,35201,山口県,下関市,1,1,,1,1,,,,,3333(3㎡あたり1人）,http://www.city.shimonoseki.lg.jp/www/genre/0000000000000/1348559775376/index.html,
92,西部高等産業技術学校,セイブコウトウサンギョウギジュツガッコウ,山口県下関市千鳥ヶ丘町21-3,34.03120808,131.0068643,083-231-9333,35201,山口県,下関市,1,,1,1,1,,,,1,476(3㎡あたり1人）,http://www.city.shimonoseki.lg.jp/www/genre/0000000000000/1348559775376/index.html,
93,千鳥ヶ丘２号公園,チドリガオカ２ゴウコウエン,山口県下関市長府千鳥ヶ丘,34.03333074,131.0065175,083-231-1933,35201,山口県,下関市,1,,1,1,1,,,,,533(3㎡あたり1人）,http://www.city.shimonoseki.lg.jp/www/genre/0000000000000/1348559775376/index.html,
94,下関市長府扇町第1運動広場,シモノセキシチョウフオオギマチダイ1ウンドウヒロバ,山口県下関市長府扇町7番,34.01874432,131.0080208,083-246-6311,35201,山口県,下関市,1,1,,1,1,,,,,12566(3㎡あたり1人）,http://www.city.shimonoseki.lg.jp/www/genre/0000000000000/1348559775376/index.html,
95,扇町運動広場,オオギマチウンドウヒロバ,山口県下関市長府扇町,34.01683463,131.0135834,083-231-2739,35201,山口県,下関市,1,1,,1,1,,,,,3666(3㎡あたり1人）,http://www.city.shimonoseki.lg.jp/www/genre/0000000000000/1348559775376/index.html,
96,掛州公園,カケスコウエン,山口県下関市長府才川2丁目,34.02454213,131.0052206,083-231-1933,35201,山口県,下関市,1,,1,1,1,,,,,266(3㎡あたり1人）,http://www.city.shimonoseki.lg.jp/www/genre/0000000000000/1348559775376/index.html,
97,陽向台公園,ヨウコウダイコウエン,山口県下関市長府才川2丁目,34.02271276,131.0005005,083-231-1933,35201,山口県,下関市,1,,1,1,1,,,,,166(3㎡あたり1人）,http://www.city.shimonoseki.lg.jp/www/genre/0000000000000/1348559775376/index.html,
98,さつきヶ丘児童公園,サツキガオカジドウコウエン,山口県下関市長府満珠町,34.014827,130.9864895,083-231-1933,35201,山口県,下関市,1,1,1,1,1,,,,,366(3㎡あたり1人）,http://www.city.shimonoseki.lg.jp/www/genre/0000000000000/1348559775376/index.html,
99,王司小学校,オウジショウガッコウ,山口県下関市王司神田6丁目9－1,34.05032457,131.0134127,083-248-1130,35201,山口県,下関市,1,1,1,1,1,,,,1,327(3㎡あたり1人）,http://www.city.shimonoseki.lg.jp/www/genre/0000000000000/1348559775376/index.html,
100,王司公民館,オウジコウミンカン,山口県下関市王司神田1丁目9－1,34.04611864,131.0150791,083-248-3176,35201,山口県,下関市,1,,1,1,1,,,,1,286(3㎡あたり1人）,http://www.city.shimonoseki.lg.jp/www/genre/0000000000000/1348559775376/index.html,
101,乃木浜総合公園,ノギハマソウゴウコウエン,山口県下関市乃木浜2丁目,34.04259969,131.0278572,083-231-1933,35201,山口県,下関市,1,1,,1,,,,,,46000(3㎡あたり1人）,http://www.city.shimonoseki.lg.jp/www/genre/0000000000000/1348559775376/index.html,
102,王司観音第２公園,オウジカンノンダイ２コウエン,山口県下関市東観音町２１番,34.04805709,131.0062269,083-231-1933,35201,山口県,下関市,1,1,1,1,1,,,,,333(3㎡あたり1人）,http://www.city.shimonoseki.lg.jp/www/genre/0000000000000/1348559775376/index.html,
103,王司湯田１号公園,オウジユダ１ゴウコウエン,山口県下関市員光町2丁目,34.05323471,131.0002199,083-231-1933,35201,山口県,下関市,1,1,1,1,1,,,,,666(3㎡あたり1人）,http://www.city.shimonoseki.lg.jp/www/genre/0000000000000/1348559775376/index.html,
104,清末公民館,キヨスエコウミンカン,山口県下関市清末陣屋5－20,34.06401779,131.0214682,083-282-1056,35201,山口県,下関市,1,1,1,,1,,,,1,153(3㎡あたり1人）,http://www.city.shimonoseki.lg.jp/www/genre/0000000000000/1348559775376/index.html,
105,清末小学校,キヨスエショウガッコウ,山口県下関市清末西町1丁目6－1,34.06351764,131.0185865,083-282-0114,35201,山口県,下関市,1,1,1,1,1,,,,1,267(3㎡あたり1人）,http://www.city.shimonoseki.lg.jp/www/genre/0000000000000/1348559775376/index.html,
106,東部中学校,トウブチュウガッコウ,山口県下関市清末陣屋5－10,34.06559308,131.0219657,083-282-0032,35201,山口県,下関市,1,1,1,1,1,,,,1,273(3㎡あたり1人）,http://www.city.shimonoseki.lg.jp/www/genre/0000000000000/1348559775376/index.html,
107,小月公民館,オヅキコウミンカン,山口県下関市小月本町1丁目7－7,34.07142781,131.0339632,083-282-0661,35201,山口県,下関市,1,1,,1,1,,,,1,275(3㎡あたり1人）,http://www.city.shimonoseki.lg.jp/www/genre/0000000000000/1348559775376/index.html,
108,小月小学校,オヅキショウガッコウ,山口県下関市小月西の台6－1,34.07095383,131.0396334,083-282-0152,35201,山口県,下関市,1,,1,1,1,,,,1,385(3㎡あたり1人）,http://www.city.shimonoseki.lg.jp/www/genre/0000000000000/1348559775376/index.html,
109,小月公園,オヅキコウエン,山口県下関市小月公園町７番,34.07425554,131.030977,083-231-1933,35201,山口県,下関市,1,1,1,1,1,,,,,4666(3㎡あたり1人）,http://www.city.shimonoseki.lg.jp/www/genre/0000000000000/1348559775376/index.html,
110,王喜小学校,オウキショウガッコウ,山口県下関市王喜本町2丁目12－30,34.06331617,131.0544446,083-282-0332,35201,山口県,下関市,1,1,,1,1,,,,1,302(3㎡あたり1人）,http://www.city.shimonoseki.lg.jp/www/genre/0000000000000/1348559775376/index.html,
111,王喜公民館,オウキコウミンカン,山口県下関市王喜本町2丁目15－10,34.06401605,131.0532231,083-282-0219,35201,山口県,下関市,1,1,,,1,,,,1,122(3㎡あたり1人）,http://www.city.shimonoseki.lg.jp/www/genre/0000000000000/1348559775376/index.html,
112,木屋川中学校,コヤガワチュウガッコウ,山口県下関市木屋川南町2丁目660番地,34.07329834,131.0560352,083-282-0354,35201,山口県,下関市,1,1,,1,1,,,,1,331(3㎡あたり1人）,http://www.city.shimonoseki.lg.jp/www/genre/0000000000000/1348559775376/index.html,
113,木屋川近隣公園,コヤガワキンリンコウエン,山口県下関市木屋川1丁目,34.07510335,131.0700482,083-231-1933,35201,山口県,下関市,1,1,1,1,1,,,,,5000(3㎡あたり1人）,http://www.city.shimonoseki.lg.jp/www/genre/0000000000000/1348559775376/index.html,
114,木屋川ラブリバーパーク,コヤガワラブリバーパーク,山口県下関市王喜本町4丁目,34.07139336,131.0496523,083-231-1370,35201,山口県,下関市,,1,,1,,,,,,23333(3㎡あたり1人）,http://www.city.shimonoseki.lg.jp/www/genre/0000000000000/1348559775376/index.html,
115,吉田小学校,ヨシダショウガッコウ,山口県下関市大字吉田字高田1044番地の2,34.08844249,131.0717471,083-284-0136,35201,山口県,下関市,,1,1,1,1,,,,1,293(3㎡あたり1人）,http://www.city.shimonoseki.lg.jp/www/genre/0000000000000/1348559775376/index.html,
116,吉田公民館,ヨシダコウミンカン,山口県下関市大字吉田地方2499,34.09123281,131.073089,083-284-0205,35201,山口県,下関市,,1,1,,1,,,,1,136(3㎡あたり1人）,http://www.city.shimonoseki.lg.jp/www/genre/0000000000000/1348559775376/index.html,
117,長慶寺,チョウケイジ,山口県下関市大字吉田字中市,34.08974631,131.0739006,083-284-0050,35201,山口県,下関市,,1,1,,1,,,,1,100(3㎡あたり1人）,http://www.city.shimonoseki.lg.jp/www/genre/0000000000000/1348559775376/index.html,
118,安岡公民館,ヤスオカコウミンカン,山口県下関市安岡駅前2丁目7－1,34.0232753,130.9155962,083-258-4792,35201,山口県,下関市,,1,,,1,,,,1,289(3㎡あたり1人）,http://www.city.shimonoseki.lg.jp/www/genre/0000000000000/1348559775376/index.html,
119,安岡中学校,ヤスオカチュウガッコウ,山口県下関市安岡町4丁目2－1,34.0331113,130.9190436,083-258-0309,35201,山口県,下関市,1,1,1,1,1,,,,1,339(3㎡あたり1人）,http://www.city.shimonoseki.lg.jp/www/genre/0000000000000/1348559775376/index.html,
120,脇之浦町民館,ワキノウラチョウミンカン,山口県下関市安岡本町3丁目14－1,34.02602814,130.9085236,083-258-0562,35201,山口県,下関市,1,1,,,,,,,1,100(3㎡あたり1人）,http://www.city.shimonoseki.lg.jp/www/genre/0000000000000/1348559775376/index.html,
121,安岡小学校,ヤスオカショウガッコウ,山口県下関市安岡町3丁目5－5,34.0287274,130.9199345,083-258-0057,35201,山口県,下関市,1,1,1,1,1,,,,1,400(3㎡あたり1人）,http://www.city.shimonoseki.lg.jp/www/genre/0000000000000/1348559775376/index.html,
122,下関工科高等学校,シモノセキコウカコウトウガッコウ,山口県下関市富任町4丁目1-1,34.02317152,130.9205162,083-258-0065,35201,山口県,下関市,1,1,,1,1,,,,1,474(3㎡あたり1人）,http://www.city.shimonoseki.lg.jp/www/genre/0000000000000/1348559775376/index.html,
123,安岡地区公園,ヤスオカチクコウエン,山口県下関市安岡町4丁目,34.03260527,130.9170048,083-231-1933,35201,山口県,下関市,1,1,1,1,1,,,,,12000(3㎡あたり1人）,http://www.city.shimonoseki.lg.jp/www/genre/0000000000000/1348559775376/index.html,
124,下関北運動公園,シモノセキキタウンドウコウエン,山口県下関市大字冨任,34.01772037,130.9347367,083-231-1933,35201,山口県,下関市,1,1,1,1,1,,,,,47666(3㎡あたり1人）,http://www.city.shimonoseki.lg.jp/www/genre/0000000000000/1348559775376/index.html,
125,吉見小学校,ヨシミショウガッコウ,山口県下関市吉見里町1丁目8－1,34.07238873,130.9009999,083-286-2014,35201,山口県,下関市,1,,1,1,1,,,,1,326(3㎡あたり1人）,http://www.city.shimonoseki.lg.jp/www/genre/0000000000000/1348559775376/index.html,
126,吉見公民館,ヨシミコウミンカン,山口県下関市大字吉見下字浦ノ後1533,34.07107456,130.902857,083-286-2121,35201,山口県,下関市,1,1,1,,1,,,,1,191(3㎡あたり1人）,http://www.city.shimonoseki.lg.jp/www/genre/0000000000000/1348559775376/index.html,
127,吉見中学校,ヨシミチュウガッコウ,山口県下関市永田本町1丁目3－10,34.07377232,130.8955216,083-286-2032,35201,山口県,下関市,1,1,,1,1,,,,1,331(3㎡あたり1人）,http://www.city.shimonoseki.lg.jp/www/genre/0000000000000/1348559775376/index.html,
128,吉母小学校,ヨシモショウガッコウ,山口県下関市大字吉母字塩谷287番地,34.0895363,130.8788326,083-286-2518,35201,山口県,下関市,1,1,1,1,1,,,,1,293(3㎡あたり1人）,http://www.city.shimonoseki.lg.jp/www/genre/0000000000000/1348559775376/index.html,
129,吉母公民館,ヨシモコウミンカン,山口県下関市大字吉母字砂留401－24,34.08855655,130.8799431,083-286-6226,35201,山口県,下関市,1,1,1,,1,,,,1,77(3㎡あたり1人）,http://www.city.shimonoseki.lg.jp/www/genre/0000000000000/1348559775376/index.html,
130,蓋井小学校,フタオイショウガッコウ,山口県下関市大字蓋井島字田町126－2,34.10169388,130.7877747,083-286-6279,35201,山口県,下関市,1,,1,1,1,,,,1,253(3㎡あたり1人）,http://www.city.shimonoseki.lg.jp/www/genre/0000000000000/1348559775376/index.html,
131,蓋井島保健福祉館,フタオイジマホケンフクシカン,山口県下関市大字蓋井島71番地,34.100094,130.7872074,083-286-6241,35201,山口県,下関市,1,,,,,,,,1,72(3㎡あたり1人）,http://www.city.shimonoseki.lg.jp/www/genre/0000000000000/1348559775376/index.html,
132,水産大学校,スイサンダイガッコウ,山口県下関市永田本町2丁目7－1,34.0697495,130.8936744,083-286-5111,35201,山口県,下関市,1,,1,1,1,,,,1,285(3㎡あたり1人）,http://www.city.shimonoseki.lg.jp/www/genre/0000000000000/1348559775376/index.html,
133,吉見近隣公園,ヨシミキンリンコウエン,山口県下関市吉見里町1丁目,34.07330619,130.898549,083-231-1933,35201,山口県,下関市,1,,1,1,1,,,,,6000(3㎡あたり1人）,http://www.city.shimonoseki.lg.jp/www/genre/0000000000000/1348559775376/index.html,
134,勝山公民館,カツヤマコウミンカン,山口県下関市秋根南町2丁目4－33,34.00822166,130.9531009,083-256-2779,35201,山口県,下関市,1,1,1,1,1,,,,1,408(3㎡あたり1人）,http://www.city.shimonoseki.lg.jp/www/genre/0000000000000/1348559775376/index.html,
135,小野町上方公会堂,オノチョウカミガタコウカイドウ,山口県下関市大字小野字上方,34.0380012,130.9589509,083-256-7139,35201,山口県,下関市,1,1,1,1,1,,,,1,20(3㎡あたり1人）,http://www.city.shimonoseki.lg.jp/www/genre/0000000000000/1348559775376/index.html,
136,勝山小学校,カツヤマショウガッコウ,山口県下関市秋根上町2丁目2-1,34.00968366,130.9608759,083-256-2251,35201,山口県,下関市,1,,1,1,1,,,,1,378(3㎡あたり1人）,http://www.city.shimonoseki.lg.jp/www/genre/0000000000000/1348559775376/index.html,
137,一の宮小学校,イチノミヤショウガッコウ,山口県下関市一の宮住吉1丁目8－1,34.00256322,130.9571988,083-256-4055,35201,山口県,下関市,1,,1,1,1,,,,1,339(3㎡あたり1人）,http://www.city.shimonoseki.lg.jp/www/genre/0000000000000/1348559775376/index.html,
138,住吉公園,スミヨシコウエン,山口県下関市一の宮住吉1丁目,33.99930473,130.9580623,083-231-1933,35201,山口県,下関市,1,,1,1,1,,,,,6666(3㎡あたり1人）,http://www.city.shimonoseki.lg.jp/www/genre/0000000000000/1348559775376/index.html,
139,勝山中学校,カツヤマチュウガッコウ,山口県下関市秋根上町2丁目5-1,34.01061641,130.9583831,083-256-2827,35201,山口県,下関市,1,,1,1,1,,,,1,320(3㎡あたり1人）,http://www.city.shimonoseki.lg.jp/www/genre/0000000000000/1348559775376/index.html,
140,秋根記念公園,アキネキネンコウエン,山口県下関市秋根西町1丁目,34.00946808,130.9477599,083-231-1933,35201,山口県,下関市,1,1,1,1,1,,,,,4666(3㎡あたり1人）,http://www.city.shimonoseki.lg.jp/www/genre/0000000000000/1348559775376/index.html,
141,秋根こども公園,アキネコドモコウエン,山口県下関市秋根本町2丁目,34.0118958,130.9518027,083-231-1933,35201,山口県,下関市,1,1,1,1,1,,,,,1800(3㎡あたり1人）,http://www.city.shimonoseki.lg.jp/www/genre/0000000000000/1348559775376/index.html,
142,勝谷北公園,ショウヤキタコウエン,山口県下関市勝谷新町3丁目,34.00663009,130.9714073,083-231-1933,35201,山口県,下関市,1,1,1,1,1,,,,,600(3㎡あたり1人）,http://www.city.shimonoseki.lg.jp/www/genre/0000000000000/1348559775376/index.html,
143,川中中学校,カワナカチュウガッコウ,山口県下関市伊倉新町4丁目6－1,34.00486356,130.9343435,083-252-0900,35201,山口県,下関市,1,1,1,1,1,,,,1,722(3㎡あたり1人）,http://www.city.shimonoseki.lg.jp/www/genre/0000000000000/1348559775376/index.html,
144,川中小学校,カワナカショウガッコウ,山口県下関市伊倉本町19－1,34.00360534,130.9351676,083-252-0833,35201,山口県,下関市,1,1,1,1,1,,,,1,393(3㎡あたり1人）,http://www.city.shimonoseki.lg.jp/www/genre/0000000000000/1348559775376/index.html,
145,川中西小学校,カワナカニシショウガッコウ,山口県下関市古屋町2丁目9－1,34.00061135,130.9192921,083-252-1949,35201,山口県,下関市,1,,1,1,1,,,,1,276(3㎡あたり1人）,http://www.city.shimonoseki.lg.jp/www/genre/0000000000000/1348559775376/index.html,
146,垢田中学校,アカダチュウガッコウ,山口県下関市大字垢田字笹原1127番地の6,33.99779025,130.9149827,083-253-1113,35201,山口県,下関市,1,,1,1,1,,,,1,411(3㎡あたり1人）,http://www.city.shimonoseki.lg.jp/www/genre/0000000000000/1348559775376/index.html,
147,垢田小学校,アカダショウガッコウ,山口県下関市新垢田西町1丁目1番1号,33.98919095,130.9132895,083-253-5433,35201,山口県,下関市,1,1,1,1,1,,,,1,337(3㎡あたり1人）,http://www.city.shimonoseki.lg.jp/www/genre/0000000000000/1348559775376/index.html,
148,新垢田南公園,シンアカダミナミコウエン,山口県下関市新垢田南町3丁目,33.98605513,130.9158125,083-231-1933,35201,山口県,下関市,1,1,1,1,1,,,,,1500(3㎡あたり1人）,http://www.city.shimonoseki.lg.jp/www/genre/0000000000000/1348559775376/index.html,
149,川中公民館,カワナカコウミンカン,山口県下関市伊倉町2丁目1－1,34.00349408,130.9316089,083-255-3501,35201,山口県,下関市,1,1,1,1,1,,,,1,456(3㎡あたり1人）,http://www.city.shimonoseki.lg.jp/www/genre/0000000000000/1348559775376/index.html,
150,川中公民館分館,カワナカコウミンカンブンカン,山口県下関市綾羅木本町3丁目1－20,34.00342214,130.924716,083-253-6169,35201,山口県,下関市,1,1,1,,1,,,,1,111(3㎡あたり1人）,http://www.city.shimonoseki.lg.jp/www/genre/0000000000000/1348559775376/index.html,
151,綾羅木１号公園,アヤラギ１ゴウコウエン,山口県下関市綾羅木本町７丁目,34.00558241,130.917778,083-231-1933,35201,山口県,下関市,1,1,1,1,1,,,,,3233(3㎡あたり1人）,http://www.city.shimonoseki.lg.jp/www/genre/0000000000000/1348559775376/index.html,
152,垢田公会堂,アカダコウカイドウ,山口県下関市垢田町1丁目11－7,33.99297003,130.9207475,083-252-5233,35201,山口県,下関市,1,1,1,1,1,,,,1,100(3㎡あたり1人）,http://www.city.shimonoseki.lg.jp/www/genre/0000000000000/1348559775376/index.html,
153,熊野小学校,クマノショウガッコウ,山口県下関市熊野西町10－1,33.99546959,130.9412288,083-254-2901,35201,山口県,下関市,1,1,1,1,1,,,,1,411(3㎡あたり1人）,http://www.city.shimonoseki.lg.jp/www/genre/0000000000000/1348559775376/index.html,
154,川中会館,カワナカカイカン,山口県下関市古屋町1丁目17-3,33.99522424,130.9238572,083-253-3915,35201,山口県,下関市,1,,1,1,1,,,,1,200(3㎡あたり1人）,http://www.city.shimonoseki.lg.jp/www/genre/0000000000000/1348559775376/index.html,
155,山口南総合支援学校下関分校,ヤマグチミナミソウゴウシエンガッコウシモノセキブンコウ,山口県下関市古屋町1丁目2-31,33.99965913,130.9241087,083-252ー3173,35201,山口県,下関市,1,1,1,1,1,,,,1,285(3㎡あたり1人）,http://www.city.shimonoseki.lg.jp/www/genre/0000000000000/1348559775376/index.html,
156,市立考古博物館,シリツコウコハクブツカン,山口県下関市大字綾羅木字岡454,34.01141704,130.9261203,083-254-3061,35201,山口県,下関市,1,1,1,1,1,,,,1,200(3㎡あたり1人）,http://www.city.shimonoseki.lg.jp/www/genre/0000000000000/1348559775376/index.html,
157,綾羅木郷遺跡公園,アヤラギゴウイセキコウエン,山口県下関市大字綾羅木字若宮,34.01237097,130.9247049,083-254-3061,35201,山口県,下関市,1,1,1,1,1,,,,,8333(3㎡あたり1人）,http://www.city.shimonoseki.lg.jp/www/genre/0000000000000/1348559775376/index.html,
158,川中東部公園,カワナカトウブコウエン,山口県下関市川中豊町4丁目,33.99782715,130.9397722,083-231-1933,35201,山口県,下関市,1,1,1,1,1,,,,,3333(3㎡あたり1人）,http://www.city.shimonoseki.lg.jp/www/genre/0000000000000/1348559775376/index.html,
159,内日公民館,ウツイコウミンカン,山口県下関市大字内日下1146－5,34.09986532,130.9707839,083-289-2036,35201,山口県,下関市,1,1,1,,1,,,,1,161(3㎡あたり1人）,http://www.city.shimonoseki.lg.jp/www/genre/0000000000000/1348559775376/index.html,
160,内日小学校,ウツイショウガッコウ,山口県下関市大字内日下字坂本1031番地,34.10144775,130.9696867,083-289-2131,35201,山口県,下関市,1,,1,1,1,,,,1,297(3㎡あたり1人）,http://www.city.shimonoseki.lg.jp/www/genre/0000000000000/1348559775376/index.html,
161,内日中学校,ウツイチュウガッコウ,山口県下関市大字内日下字福寿庵1196－2,34.10270408,130.9687151,083-289-2431,35201,山口県,下関市,1,,1,1,1,,,,1,258(3㎡あたり1人）,http://www.city.shimonoseki.lg.jp/www/genre/0000000000000/1348559775376/index.html,
162,豊東小学校,トヨヒガシショウガッコウ,山口県下関市菊川町大字上大野字上ノ原20-1,34.11558781,131.0492338,083-287-0050,35201,山口県,下関市,1,1,1,1,1,,,,1,216(3㎡あたり1人）,http://www.city.shimonoseki.lg.jp/www/genre/0000000000000/1348559775376/index.html,
163,旧轡井分校校舎,キュウクツワイブンコウコウシャ,山口県下関市菊川町大字轡井字下入道250-1,34.12134353,131.0815956,083-287-1112,35201,山口県,下関市,1,,1,1,1,,,,1,141(3㎡あたり1人）,http://www.city.shimonoseki.lg.jp/www/genre/0000000000000/1348559775376/index.html,
164,岡枝小学校,オカエダショウガッコウ,山口県下関市菊川町大字吉賀字金蔵寺2495,34.1343086,131.0199173,083-287-0007,35201,山口県,下関市,1,,1,1,1,,,,1,181(3㎡あたり1人）,http://www.city.shimonoseki.lg.jp/www/genre/0000000000000/1348559775376/index.html,
165,楢崎小学校,ナラザキショウガッコウ,山口県下関市菊川町大字楢崎字殿屋敷215,34.13529436,130.9944717,083-287-0164,35201,山口県,下関市,1,,1,1,1,,,,1,181(3㎡あたり1人）,http://www.city.shimonoseki.lg.jp/www/genre/0000000000000/1348559775376/index.html,
166,菊川ふれあい会館,キクガワフレアイカイカン,山口県下関市菊川町下岡枝117,34.12076408,131.0308217,083-287-0302,35201,山口県,下関市,1,1,1,1,1,,,,1,1364(3㎡あたり1人）,http://www.city.shimonoseki.lg.jp/www/genre/0000000000000/1348559775376/index.html,
167,菊川運動公園,キクガワウンドウコウエン,山口県下関市菊川町下岡枝,34.12304352,131.0302102,083-231-1933,35201,山口県,下関市,1,1,1,1,1,,,,,11366(3㎡あたり1人）,http://www.city.shimonoseki.lg.jp/www/genre/0000000000000/1348559775376/index.html,
168,楢崎公民館,ナラザキコウミンカン,山口県下関市菊川町楢崎790-1,34.13272223,131.0008596,083-287-0302,35201,山口県,下関市,1,1,1,1,1,,,,1,75(3㎡あたり1人）,http://www.city.shimonoseki.lg.jp/www/genre/0000000000000/1348559775376/index.html,
169,菊川総合支所,キクガワソウゴウシショ,山口県下関市菊川町大字田部734-1,34.11876977,131.0362608,083-287-1112,35201,山口県,下関市,,1,1,,1,,,,1,169(3㎡あたり1人）,http://www.city.shimonoseki.lg.jp/www/genre/0000000000000/1348559775376/index.html,
170,菊川体育館,キクガワタイイクカン,山口県下関市菊川町下岡枝上室屋,34.1230598,131.0269165,083-287-0042,35201,山口県,下関市,1,1,1,,1,,,,1,464(3㎡あたり1人）,http://www.city.shimonoseki.lg.jp/www/genre/0000000000000/1348559775376/index.html,
171,菊川老人憩の家,キクガワロウジンイコイノイエ,山口県下関市菊川町下岡枝508-1,34.13061197,131.0347981,083-287-0126,35201,山口県,下関市,1,1,1,,1,,,,1,69(3㎡あたり1人）,http://www.city.shimonoseki.lg.jp/www/genre/0000000000000/1348559775376/index.html,
172,田部高等学校,タベコウトウガッコウ,山口県下関市菊川町田部1074,34.11777053,131.0305567,083-287-1212,35201,山口県,下関市,1,1,1,1,1,,,,1,432(3㎡あたり1人）,http://www.city.shimonoseki.lg.jp/www/genre/0000000000000/1348559775376/index.html,
173,旧殿居小学校維新分校（清流館）,キュウトノイショウガッコウイシンブンコウ（セイリュウカン）,山口県下関市豊田町大字杢路子1441-2,34.2142275,131.0098392,083-766-2824,35201,山口県,下関市,1,,1,1,1,,,,1,50(3㎡あたり1人）,http://www.city.shimonoseki.lg.jp/www/genre/0000000000000/1348559775376/index.html,
174,殿居公民館,トノイコウミンカン,山口県下関市豊田町大字殿居1039-2,34.26042195,131.0306677,083-768-0556,35201,山口県,下関市,1,1,1,1,1,,,,1,25(3㎡あたり1人）,http://www.city.shimonoseki.lg.jp/www/genre/0000000000000/1348559775376/index.html,
175,とのい夢夢ハウス,トノイユメユメハウス,山口県下関市豊田町大字殿居1094-1,34.25876671,131.0303816,083-766-2824,35201,山口県,下関市,1,1,1,1,1,,,,1,45(3㎡あたり1人）,http://www.city.shimonoseki.lg.jp/www/genre/0000000000000/1348559775376/index.html,
176,旧殿居小学校,キュウトノイショウガッコウ,山口県下関市豊田町大字殿居1040-1,34.25989496,131.0304976,083-768-0221,35201,山口県,下関市,1,1,1,1,1,,,,,150(3㎡あたり1人）,http://www.city.shimonoseki.lg.jp/www/genre/0000000000000/1348559775376/index.html,
177,下関市豊田農村勤労福祉センター,シモノセキシトヨタノウソンキンロウフクシセンター,山口県下関市豊田町大字浮石2528-1,34.24326823,131.0443889,083-766-1429,35201,山口県,下関市,1,1,1,,1,,,,1,230(3㎡あたり1人）,http://www.city.shimonoseki.lg.jp/www/genre/0000000000000/1348559775376/index.html,
178,豊田中小学校,トヨタチュウショウガッコウ,山口県下関市豊田町大字浮石685-2,34.22938184,131.0564267,083-766-1079,35201,山口県,下関市,1,,1,1,1,,,,1,150(3㎡あたり1人）,http://www.city.shimonoseki.lg.jp/www/genre/0000000000000/1348559775376/index.html,
179,豊田中公民館,トヨタナカコウミンカン,山口県下関市豊田町大字八道2544-1,34.21391996,131.0547251,083-766-2361,35201,山口県,下関市,1,1,1,1,1,,,,1,50(3㎡あたり1人）,http://www.city.shimonoseki.lg.jp/www/genre/0000000000000/1348559775376/index.html,
180,旧三豊小学校,キュウミトヨショウガッコウ,山口県下関市豊田町大字地吉122,34.23990973,131.1271609,083-766-1051,35201,山口県,下関市,1,,1,1,1,,,,,150(3㎡あたり1人）,http://www.city.shimonoseki.lg.jp/www/genre/0000000000000/1348559775376/index.html,
181,三豊公民館,ミトヨコウミンカン,山口県下関市豊田町大字地吉122,34.24017201,131.1268365,083-766-3551,35201,山口県,下関市,1,,1,1,1,,,,1,30(3㎡あたり1人）,http://www.city.shimonoseki.lg.jp/www/genre/0000000000000/1348559775376/index.html,
182,豊田生涯学習センター,トヨタショウガイガクシュウセンター,山口県下関市豊田町大字矢田149-1,34.20304183,131.073115,083-766-2100,35201,山口県,下関市,1,,1,,1,,,,1,160(3㎡あたり1人）,http://www.city.shimonoseki.lg.jp/www/genre/0000000000000/1348559775376/index.html,
183,西市小学校,ニシイチショウガッコウ,山口県下関市豊田町大字矢田132,34.20390114,131.074198,083-766-0064,35201,山口県,下関市,1,,1,1,1,,,,1,140(3㎡あたり1人）,http://www.city.shimonoseki.lg.jp/www/genre/0000000000000/1348559775376/index.html,
184,西市高等学校,ニシイチコウトウガッコウ,山口県下関市豊田町殿敷834-5,34.19812837,131.0838991,083-766-0002,35201,山口県,下関市,1,1,1,1,1,,,,1,200(3㎡あたり1人）,http://www.city.shimonoseki.lg.jp/www/genre/0000000000000/1348559775376/index.html,
185,豊田下公民館,トヨタシモコウミンカン,山口県下関市豊田町大字手洗285-1,34.18036492,131.067115,083-766-2556,35201,山口県,下関市,,1,1,1,1,,,,1,25(3㎡あたり1人）,http://www.city.shimonoseki.lg.jp/www/genre/0000000000000/1348559775376/index.html,
186,豊田下小学校,トヨタシモショウガッコウ,山口県下関市豊田町大字手洗303,34.18040486,131.0663533,083-766-0167,35201,山口県,下関市,,1,1,1,1,,,,1,140(3㎡あたり1人）,http://www.city.shimonoseki.lg.jp/www/genre/0000000000000/1348559775376/index.html,
187,豊田農業公園（総合営農指導拠点施設）,トヨタノウギョウコウエン（ソウゴウエイノウシドウキョテンシセツ）,山口県下関市豊田町大字八道601‐3,34.23506542,131.0321327,083-766-2824,35201,山口県,下関市,1,1,1,1,1,,,,1,20(3㎡あたり1人）,http://www.city.shimonoseki.lg.jp/www/genre/0000000000000/1348559775376/index.html,
188,豊田農業公園（多目的利用施設）,トヨタノウギョウコウエン（タモクテキリヨウシセツ）,山口県下関市豊田町大字八道1088‐1,34.23489126,131.0344179,083-766-2824,35201,山口県,下関市,1,1,1,1,1,,,,1,20(3㎡あたり1人）,http://www.city.shimonoseki.lg.jp/www/genre/0000000000000/1348559775376/index.html,
189,豊田農業公園みのりの丘,トヨタノウギョウコウエンミノリノオカ,山口県下関市豊田町八道,34.23420419,131.0338823,083-231-1933,35201,山口県,下関市,1,1,1,1,1,,,,,66666(3㎡あたり1人）,http://www.city.shimonoseki.lg.jp/www/genre/0000000000000/1348559775376/index.html,
190,旧豊田西中学校,キュウトヨタニシチュウガッコウ,山口県下関市豊田町大字浮石2593‐2,34.24171428,131.0451822,083-766‐0161,35201,山口県,下関市,1,1,1,1,1,,,,,140(3㎡あたり1人）,http://www.city.shimonoseki.lg.jp/www/genre/0000000000000/1348559775376/index.html,
191,西市公民館,ニシイチコウミンカン,山口県下関市豊田町大字矢田153-1,34.202801,131.073534,083-766-3432,35201,山口県,下関市,1,,1,1,1,,,,1,240(3㎡あたり1人）,http://www.city.shimonoseki.lg.jp/www/genre/0000000000000/1348559775376/index.html,
192,豊田中学校,トヨタチュウガッコウ,山口県下関市豊田町大字矢田434,34.19735818,131.0743495,083-766‐0105,35201,山口県,下関市,,1,1,1,1,,,,1,240(3㎡あたり1人）,http://www.city.shimonoseki.lg.jp/www/genre/0000000000000/1348559775376/index.html,
193,双葉保育園,フタバホイクエン,山口県下関市豊浦町大字宇賀字川嶋2984-1,34.20724549,130.9346461,083-776-0202,35201,山口県,下関市,1,1,1,1,1,,,,1,118(3㎡あたり1人）,http://www.city.shimonoseki.lg.jp/www/genre/0000000000000/1348559775376/index.html,
194,宇賀児童館,ウカジドウカン,山口県下関市豊浦町大字宇賀字中園7925-1,34.21203107,130.9314099,083-776-0001,35201,山口県,下関市,1,,1,1,,,,,1,50(3㎡あたり1人）,http://www.city.shimonoseki.lg.jp/www/genre/0000000000000/1348559775376/index.html,
195,宇賀小学校,ウカショウガッコウ,山口県下関市豊浦町大字宇賀字ふけ4961,34.22092785,130.9317424,083-776-0020,35201,山口県,下関市,1,,1,1,1,,,,1,269(3㎡あたり1人）,http://www.city.shimonoseki.lg.jp/www/genre/0000000000000/1348559775376/index.html,
196,宇賀ふれあいセンター,ウカフレアイセンター,山口県下関市豊浦町大字宇賀字ふけ4940,34.22025988,130.9327123,083-776-0021,35201,山口県,下関市,1,,1,1,1,,,,1,523(3㎡あたり1人）,http://www.city.shimonoseki.lg.jp/www/genre/0000000000000/1348559775376/index.html,
197,夢が丘スポーツセンター,ユメガオカスポーツセンター,山口県下関市豊浦町大字小串字夢が丘140,34.17235538,130.9345297,083-775-4113,35201,山口県,下関市,1,1,1,1,1,,,,1,1335(3㎡あたり1人）,http://www.city.shimonoseki.lg.jp/www/genre/0000000000000/1348559775376/index.html,
198,小串小学校,コグシショウガッコウ,山口県下関市豊浦町大字小串字谷田ヶ浴617,34.17594682,130.9338076,083-774-0814,35201,山口県,下関市,1,,1,1,1,,,,1,202(3㎡あたり1人）,http://www.city.shimonoseki.lg.jp/www/genre/0000000000000/1348559775376/index.html,
199,小串公民館,コグシコウミンカン,山口県下関市豊浦町大字小串字先中2207-1,34.17598013,130.9291456,083-772-2001,35201,山口県,下関市,1,1,,,,,,,1,328(3㎡あたり1人）,http://www.city.shimonoseki.lg.jp/www/genre/0000000000000/1348559775376/index.html,
200,響高等学校,ヒビキコウトウガッコウ,山口県下関市豊浦町小串新宮15-1,34.169783,130.9317459,083-774-0131,35201,山口県,下関市,1,,1,1,1,,,,1,416(3㎡あたり1人）,http://www.city.shimonoseki.lg.jp/www/genre/0000000000000/1348559775376/index.html,
201,夢ヶ丘公園,ユメガオカコウエン,山口県下関市豊浦町大字小串字外無田,34.17184496,130.9351143,083-231-1933,35201,山口県,下関市,1,,1,1,1,,,,,29333(3㎡あたり1人）,http://www.city.shimonoseki.lg.jp/www/genre/0000000000000/1348559775376/index.html,
202,川棚小学校,カワタナショウガッコウ,山口県下関市豊浦町大字川棚字後楽3650-1,34.1513821,130.9318916,083-772-0190,35201,山口県,下関市,,1,1,1,1,,,,1,365(3㎡あたり1人）,http://www.city.shimonoseki.lg.jp/www/genre/0000000000000/1348559775376/index.html,
203,川棚公民館,カワタナコウミンカン,山口県下関市豊浦町大字川棚字林崎6167-2,34.14524683,130.9242114,083-772-2120,35201,山口県,下関市,,1,1,,1,,,,1,624(3㎡あたり1人）,http://www.city.shimonoseki.lg.jp/www/genre/0000000000000/1348559775376/index.html,
204,とんがりぼうし豊浦（自然活用総合管理センター）,トンガリボウシトヨウラ（シゼンカツヨウソウゴウカンリセンター）,山口県下関市豊浦町大字川棚字前坪5262-1,34.14019547,130.9374168,083-774-3700,35201,山口県,下関市,1,1,1,1,1,,,,1,191(3㎡あたり1人）,http://www.city.shimonoseki.lg.jp/www/genre/0000000000000/1348559775376/index.html,
205,豊浦老人福祉センター,トヨウラロウジンフクシセンター,山口県下関市豊浦町大字川棚字道中江4892-1,34.14058936,130.9386055,083-774-2900,35201,山口県,下関市,1,1,1,1,1,,,,1,97(3㎡あたり1人）,http://www.city.shimonoseki.lg.jp/www/genre/0000000000000/1348559775376/index.html,
206,リフレッシュパーク豊浦,リフレッシュパークトヨウラ,山口県下関市豊浦町大字川棚字長見,34.13392898,130.9308722,083-231-1933,35201,山口県,下関市,1,1,1,1,1,,,,,45133(3㎡あたり1人）,http://www.city.shimonoseki.lg.jp/www/genre/0000000000000/1348559775376/index.html,
207,誠意小学校,セイイショウガッコウ,山口県下関市豊浦町大字黒井字才舛2200,34.12782097,130.9136314,083-772-0290,35201,山口県,下関市,1,1,1,1,1,,,,1,197(3㎡あたり1人）,http://www.city.shimonoseki.lg.jp/www/genre/0000000000000/1348559775376/index.html,
208,豊浦勤労青少年ホーム,トヨウラキンロウセイショウネンホーム,山口県下関市豊浦町大字黒井字平田2351,34.127359,130.9096876,083-772-2678,35201,山口県,下関市,1,1,1,1,1,,,,1,353(3㎡あたり1人）,http://www.city.shimonoseki.lg.jp/www/genre/0000000000000/1348559775376/index.html,
209,豊洋中学校,ホウヨウチュウガッコウ,山口県下関市豊浦町大字黒井字馬神724-1,34.12817144,130.9045972,083-772-0291,35201,山口県,下関市,1,1,1,1,1,,,,1,225(3㎡あたり1人）,http://www.city.shimonoseki.lg.jp/www/genre/0000000000000/1348559775376/index.html,
210,豊洋運動公園,ホウヨウウンドウコウエン,山口県下関市豊浦町大字黒井字新川,34.12764974,130.9033609,083-231-1933,35201,山口県,下関市,1,1,1,1,1,,,,,16366(3㎡あたり1人）,http://www.city.shimonoseki.lg.jp/www/genre/0000000000000/1348559775376/index.html,
211,豊浦多世代交流センター,トヨウラタセダイコウリュウセンター,山口県下関市豊浦町豊洋台1丁目447-290,34.11359612,130.9107521,083-772-0800,35201,山口県,下関市,1,1,1,1,1,,,,1,94(3㎡あたり1人）,http://www.city.shimonoseki.lg.jp/www/genre/0000000000000/1348559775376/index.html,
212,室津小学校,ムロツショウガッコウ,山口県下関市豊浦町大字室津下字新田152-1,34.13081362,130.8932025,083-772-0390,35201,山口県,下関市,1,1,1,1,1,,,,1,262(3㎡あたり1人）,http://www.city.shimonoseki.lg.jp/www/genre/0000000000000/1348559775376/index.html,
213,室津公民館,ムロツコウミンカン,山口県下関市豊浦町大字室津下681-3,34.13322546,130.8862794,083-772-0055,35201,山口県,下関市,1,1,,1,,,,,1,150(3㎡あたり1人）,http://www.city.shimonoseki.lg.jp/www/genre/0000000000000/1348559775376/index.html,
214,夢が丘中学校,ユメガオカチュウガッコウ,山口県下関市豊浦町大字小串字夢が丘145,34.17229188,130.9333137,083-775-3300,35201,山口県,下関市,1,,1,1,1,,,,1,100(3㎡あたり1人）,http://www.city.shimonoseki.lg.jp/www/genre/0000000000000/1348559775376/index.html,
215,豊浦総合支援学校,トヨウラソウゴウシエンガッコウ,山口県下関市豊浦町大字小串字石堂7-136,34.16686148,130.9247761,083-772-1331,35201,山口県,下関市,1,1,1,1,1,,,,1,195(3㎡あたり1人）,http://www.city.shimonoseki.lg.jp/www/genre/0000000000000/1348559775376/index.html,
216,川棚温泉交流センター,シモノセキシカワタナオンセンコウリュウセンター,山口県下関市豊浦町大字川棚5180番地,34.13771808,130.9396558,083-774-3855,35201,山口県,下関市,1,1,1,1,1,,,,1,414(3㎡あたり1人）,http://www.city.shimonoseki.lg.jp/www/genre/0000000000000/1348559775376/index.html,
217,大河内交流センター,オオコウチコウリュウセンター,山口県下関市豊浦町大字宇賀5367-1,34.2174841,130.9440933,083-231-9333,35201,山口県,下関市,1,,1,1,1,,,,1,26(3㎡あたり1人）,http://www.city.shimonoseki.lg.jp/www/genre/0000000000000/1348559775376/index.html,
218,小野ふれあいセンター,オノフレアイセンター,山口県下関市豊浦町大字川棚1486-1,34.1824817,130.9617176,083-231-9333,35201,山口県,下関市,1,,1,1,1,,,,1,33(3㎡あたり1人）,http://www.city.shimonoseki.lg.jp/www/genre/0000000000000/1348559775376/index.html,
219,神玉小学校,カミタマショウガッコウ,山口県下関市豊北町大字神田上字野中2704-1,34.28621113,130.893718,083-788-0014,35201,山口県,下関市,1,,1,1,1,,,,1,220(3㎡あたり1人）,http://www.city.shimonoseki.lg.jp/www/genre/0000000000000/1348559775376/index.html,
220,角島小学校,ツノジマショウガッコウ,山口県下関市豊北町大字角島字正ノ田1768,34.35435012,130.8601731,083-786-2006,35201,山口県,下関市,1,1,1,1,1,,,,1,154(3㎡あたり1人）,http://www.city.shimonoseki.lg.jp/www/genre/0000000000000/1348559775376/index.html,
221,神田小学校,カンダショウガッコウ,山口県下関市豊北町大字神田字北東法永浴2519-1,34.33291263,130.8945357,083-786-0006,35201,山口県,下関市,1,,1,1,,,,,1,215(3㎡あたり1人）,http://www.city.shimonoseki.lg.jp/www/genre/0000000000000/1348559775376/index.html,
222,阿川小学校,アガワショウガッコウ,山口県下関市豊北町大字阿川字下宅野3755-1,34.339423,130.9244259,083-786-1014,35201,山口県,下関市,1,,1,1,1,,,,1,220(3㎡あたり1人）,http://www.city.shimonoseki.lg.jp/www/genre/0000000000000/1348559775376/index.html,
223,阿川ほうせんぐり海浜公園,アガワホウセングリカイヒンコウエン,山口県下関市豊北町阿川,34.34134488,130.9296696,083-231-1933,35201,山口県,下関市,1,1,,1,,,,,,10100(3㎡あたり1人）,http://www.city.shimonoseki.lg.jp/www/genre/0000000000000/1348559775376/index.html,
224,粟野小学校,アワノショウガッコウ,山口県下関市豊北町大字粟野字妙見3349,34.33919184,130.9798911,083-785-0038,35201,山口県,下関市,,1,,1,1,,,,1,189(3㎡あたり1人）,http://www.city.shimonoseki.lg.jp/www/genre/0000000000000/1348559775376/index.html,
225,滝部小学校,タキベショウガッコウ,山口県下関市豊北町大字滝部字常安1200,34.29348296,130.95424,083-782-0030,35201,山口県,下関市,1,,1,1,1,,,,1,265(3㎡あたり1人）,http://www.city.shimonoseki.lg.jp/www/genre/0000000000000/1348559775376/index.html,
226,旧田耕小学校,キュウタコウショウガッコウ,山口県下関市豊北町大字田耕字尾振り松4351,34.27087798,130.9869745,083-783-0003,35201,山口県,下関市,1,1,1,1,1,,,,,215(3㎡あたり1人）,http://www.city.shimonoseki.lg.jp/www/genre/0000000000000/1348559775376/index.html,
227,旧二見小学校,キュウフタミショウガッコウ,山口県下関市豊北町大字北宇賀字五本松3087-3,34.25456874,130.9171112,083-782-1004,35201,山口県,下関市,1,,1,1,1,,,,,88(3㎡あたり1人）,http://www.city.shimonoseki.lg.jp/www/genre/0000000000000/1348559775376/index.html,
228,豊北中学校,ユタカキタチュウガッコウ,山口県下関市豊北町大字滝部字幸神1244-36,34.29798623,130.9492748,083-782-0035,35201,山口県,下関市,1,,1,1,1,,,,1,616(3㎡あたり1人）,http://www.city.shimonoseki.lg.jp/www/genre/0000000000000/1348559775376/index.html,
229,神玉公民館,カミタマコウミンカン,山口県下関市豊北町大字神田上字野中2709,34.28504059,130.8943964,083-788-1043,35201,山口県,下関市,1,,1,1,1,,,,1,136(3㎡あたり1人）,http://www.city.shimonoseki.lg.jp/www/genre/0000000000000/1348559775376/index.html,
230,角島開発総合センター,ツノジマカイハツソウゴウセンター,山口県下関市豊北町大字角島字宮ノ脇1413-1,34.35568644,130.8673598,083-786-0734,35201,山口県,下関市,1,1,1,1,1,,,,1,175(3㎡あたり1人）,http://www.city.shimonoseki.lg.jp/www/genre/0000000000000/1348559775376/index.html,
231,阿川公民館,アガワコウミンカン,山口県下関市豊北町大字阿川字下宅野3752,34.34009738,130.9250004,083-786-1010,35201,山口県,下関市,1,1,1,1,1,,,,1,105(3㎡あたり1人）,http://www.city.shimonoseki.lg.jp/www/genre/0000000000000/1348559775376/index.html,
232,粟野公民館,アワノコウミンカン,山口県下関市豊北町大字粟野字妙見3333-2,34.34010854,130.9799308,083-785-0001,35201,山口県,下関市,,,1,1,1,,,,1,145(3㎡あたり1人）,http://www.city.shimonoseki.lg.jp/www/genre/0000000000000/1348559775376/index.html,
233,滝部公民館,タキブコウミンカン,山口県下関市豊北町大字滝部字清願3397-12,34.2885356,130.948496,083-782-1296,35201,山口県,下関市,1,1,1,1,1,,,,1,183(3㎡あたり1人）,http://www.city.shimonoseki.lg.jp/www/genre/0000000000000/1348559775376/index.html,
234,豊北生涯学習センター,トヨキタショウガイガクシュウセンター,山口県下関市豊北町大字神田1199-1,34.31597443,130.8919743,083-786-0780,35201,山口県,下関市,1,1,1,1,1,,,,1,1098(3㎡あたり1人）,http://www.city.shimonoseki.lg.jp/www/genre/0000000000000/1348559775376/index.html,
235,田耕農林漁家婦人活動促進センター,タコウノウリンギョカフジンカツドウソクシンセンター,山口県下関市豊北町大字田耕字柿畑4332-2,34.27021194,130.9872057,083-783-0001,35201,山口県,下関市,1,1,1,1,1,,,,1,94(3㎡あたり1人）,http://www.city.shimonoseki.lg.jp/www/genre/0000000000000/1348559775376/index.html,
236,豊北体育センター,トヨキタタイイクセンター,山口県下関市豊北町大字滝部字宮ノ臺3158-1,34.28989559,130.9469404,083-786-0780,35201,山口県,下関市,1,1,1,1,1,,,,1,390(3㎡あたり1人）,http://www.city.shimonoseki.lg.jp/www/genre/0000000000000/1348559775376/index.html,
237,二見集会所,フタミシュウカイショ,山口県下関市豊北町北宇賀字上峠西平3585-1,34.24863697,130.9102448,083-782-1009,35201,山口県,下関市,1,,,,,,,,1,35(3㎡あたり1人）,http://www.city.shimonoseki.lg.jp/www/genre/0000000000000/1348559775376/index.html,
238,豊北総合運動公園,ホウホクソウゴウウンドウコウエン,山口県下関市豊北町大字滝部字角石2914,34.29526525,130.9448917,083-231-1933,35201,山口県,下関市,1,,1,1,1,,,,1,12966（施設90）(3㎡あたり1人),http://www.city.shimonoseki.lg.jp/www/genre/0000000000000/1348559775376/index.html,
239,豊北総合支所,トヨキタソウゴウシショ,山口県下関市豊北町大字滝部3140－1,34.29027491,130.9492022,083-782-1789,35201,山口県,下関市,1,1,1,1,1,,,,1,59(3㎡あたり1人）,http://www.city.shimonoseki.lg.jp/www/genre/0000000000000/1348559775376/index.html,
240,豊北高等学校,トヨキタコウトウガッコウ,山口県下関市豊北町大字滝部字中久森1003,34.29239192,130.9570207,083-782-0023,35201,山口県,下関市,1,1,1,1,1,,,,1,401(3㎡あたり1人）,http://www.city.shimonoseki.lg.jp/www/genre/0000000000000/1348559775376/index.html,
241,東岐波ふれあいセンター,ヒガシキワフレアイセンター,山口県宇部市大字東岐波3829番地,33.980985,131.339509,"0836-34-8325
(健康福祉部地域福祉課）",35202,山口県,宇部市,1,1,1,,1,,1,,1,380(1㎡あたり1人）,http://www.city.ube.yamaguchi.jp/kurashi/bousai/hinanbasho/index.html,
242,東岐波小学校,ヒガシキワショウガッコウ,山口県宇部市大字東岐波3853番地,33.980416,131.339066,"0836-34-8325
(健康福祉部地域福祉課）",35202,山口県,宇部市,1,1,1,1,1,1,1,,1,10512(1㎡あたり1人）,http://www.city.ube.yamaguchi.jp/kurashi/bousai/hinanbasho/index.html,
243,岐波自治会館,キワジチカイカン,山口県宇部市大字東岐波1450-2,33.985713,131.34965,"0836-34-8325
(健康福祉部地域福祉課）",35202,山口県,宇部市,1,1,1,,1,,1,,,100(1㎡あたり1人）,http://www.city.ube.yamaguchi.jp/kurashi/bousai/hinanbasho/index.html,
244,前田集会所,マエダシュウカイショ,山口県宇部市大字東岐波1777番地,33.995398,131.345192,"0836-34-8325
(健康福祉部地域福祉課）",35202,山口県,宇部市,1,1,1,1,1,,1,,,30(1㎡あたり1人）,http://www.city.ube.yamaguchi.jp/kurashi/bousai/hinanbasho/index.html,
245, 丸尾自治会館,マルオジチカイカン,山口県宇部市大字東岐波4327-30,33.966854,131.350479,"0836-34-8325
(健康福祉部地域福祉課）",35202,山口県,宇部市,1,1,1,1,1,,1,,,100(1㎡あたり1人）,http://www.city.ube.yamaguchi.jp/kurashi/bousai/hinanbasho/index.html,
246, 西岐波ふれあいセンター,ニシキワフレアイセンター,山口県宇部市床波六丁目5-23,33.954838,131.312258,"0836-34-8325
(健康福祉部地域福祉課）",35202,山口県,宇部市,1,1,1,,1,,1,,1,442(1㎡あたり1人）,http://www.city.ube.yamaguchi.jp/kurashi/bousai/hinanbasho/index.html,
247, 西岐波小学校,ニシキワショウガッコウ,山口県宇部市床波三丁目4-10,33.956724,131.311466,"0836-34-8325
(健康福祉部地域福祉課）",35202,山口県,宇部市,1,1,1,1,1,1,1,,1,9719(1㎡あたり1人）,http://www.city.ube.yamaguchi.jp/kurashi/bousai/hinanbasho/index.html,
248, 吉田公会堂,ヨシダコウカイドウ,山口県宇部市大字西岐波1021-2,33.957493,131.321533,"0836-34-8325
(健康福祉部地域福祉課）",35202,山口県,宇部市,1,1,1,,1,,1,,,30(1㎡あたり1人）,http://www.city.ube.yamaguchi.jp/kurashi/bousai/hinanbasho/index.html,
249, 宇部興産中央病院第2駐車場,ウベコウサンチュウオウビョウインダイ2チュウシャジョウ,山口県宇部市大字西岐波750番地,33.967523,131.331066,"0836-34-8325
(健康福祉部地域福祉課）",35202,山口県,宇部市,,,,1,1,,,,,300(1㎡あたり1人）,http://www.city.ube.yamaguchi.jp/kurashi/bousai/hinanbasho/index.html,
250, 柳ヶ瀬公会堂,ヤナガセコウカイドウ,山口県宇部市大字西岐波1400-1,33.963741,131.321315,"0836-34-8325
(健康福祉部地域福祉課）",35202,山口県,宇部市,1,1,1,1,1,,1,,,80(1㎡あたり1人）,http://www.city.ube.yamaguchi.jp/kurashi/bousai/hinanbasho/index.html,
251, 柳ヶ瀬コミュニティ広場,ヤナガセコミュニティヒロバ,山口県宇部市大字西岐波1382-1　他,33.963539,131.319759,"0836-34-8325
(健康福祉部地域福祉課）",35202,山口県,宇部市,,,,1,1,,,,,500(1㎡あたり1人）,http://www.city.ube.yamaguchi.jp/kurashi/bousai/hinanbasho/index.html,
252, 南方八幡宮,ミナミガタハチマングウ,山口県宇部市大字西岐波2473-1,33.965754,131.31006,"0836-34-8325
(健康福祉部地域福祉課）",35202,山口県,宇部市,1,1,1,1,1,,1,,,80(1㎡あたり1人）,http://www.city.ube.yamaguchi.jp/kurashi/bousai/hinanbasho/index.html,
253, 南方公園,ミナミガタコウエン,山口県宇部市大字西岐波2467番地　他,33.966675,131.310146,"0836-34-8325
(健康福祉部地域福祉課）",35202,山口県,宇部市,,,,1,1,1,,,,9650(1㎡あたり1人）,http://www.city.ube.yamaguchi.jp/kurashi/bousai/hinanbasho/index.html,
254, 東和町自治会館,トウワチョウジチカイカン,山口県宇部市大字西岐波2656番地,33.961488,131.309105,"0836-34-8325
(健康福祉部地域福祉課）",35202,山口県,宇部市,,1,1,1,1,,,,,50(1㎡あたり1人）,http://www.city.ube.yamaguchi.jp/kurashi/bousai/hinanbasho/index.html,
255, 白土自治会館,シラツチジチカイカン,山口県宇部市床波四丁目8-40-6,33.957572,131.316591,"0836-34-8325
(健康福祉部地域福祉課）",35202,山口県,宇部市,1,1,1,1,1,,1,,,30(1㎡あたり1人）,http://www.city.ube.yamaguchi.jp/kurashi/bousai/hinanbasho/index.html,
256, 西岐波団地集会所,ニシキワダンチシュウカイショ,山口県宇部市大字西岐波3916番地,33.958044,131.302716,"0836-34-8325
(健康福祉部地域福祉課）",35202,山口県,宇部市,1,1,1,1,1,,1,,,180(1㎡あたり1人）,http://www.city.ube.yamaguchi.jp/kurashi/bousai/hinanbasho/index.html,
257, 常盤ふれあいセンター,トキワフレアイセンター,山口県宇部市亀浦一丁目1-50,33.944501,131.288424,"0836-34-8325
(健康福祉部地域福祉課）",35202,山口県,宇部市,1,1,1,1,1,,1,,1,370(1㎡あたり1人）,http://www.city.ube.yamaguchi.jp/kurashi/bousai/hinanbasho/index.html,
258, 常盤小学校,トキワショウガッコウ,宇部市大字西岐波1337-12,33.947739,131.293897,"0836-34-8325
(健康福祉部地域福祉課）",35202,山口県,宇部市,1,1,1,1,1,1,1,,1,13558(1㎡あたり1人）,http://www.city.ube.yamaguchi.jp/kurashi/bousai/hinanbasho/index.html,
259, 常盤公園,トキワコウエン,山口県宇部市大字沖宇部　他,33.947715,131.289064,"0836-34-8325
(健康福祉部地域福祉課）",35202,山口県,宇部市,,,,1,1,1,,,,41600(1㎡あたり1人）,http://www.city.ube.yamaguchi.jp/kurashi/bousai/hinanbasho/index.html,
260, 恩田ふれあいセンター,オンダフレアイセンター,山口県宇部市草江一丁目6-7,33.939512,131.271735,"0836-34-8325
(健康福祉部地域福祉課）",35202,山口県,宇部市,1,,1,,1,,1,,1,362(1㎡あたり1人）,http://www.city.ube.yamaguchi.jp/kurashi/bousai/hinanbasho/index.html,
261, 恩田小学校,オンダショウガッコウ,山口県宇部市笹山町一丁目4-1,33.942024,131.262665,"0836-34-8325
(健康福祉部地域福祉課）",35202,山口県,宇部市,1,,1,1,1,1,1,,1,10981(1㎡あたり1人）,http://www.city.ube.yamaguchi.jp/kurashi/bousai/hinanbasho/index.html,
262, 俵田翁記念体育館,タワラダオウキネンタイイクカン,山口県宇部市恩田町四丁目1-1,33.946844,131.272203,"0836-34-8325
(健康福祉部地域福祉課）",35202,山口県,宇部市,1,,1,,1,,1,,1,7000(1㎡あたり1人）,http://www.city.ube.yamaguchi.jp/kurashi/bousai/hinanbasho/index.html,
263, 笹山公会堂,ササヤマコウカイドウ,山口県宇部市笹山町一丁目9番,33.939229,131.261031,"0836-34-8325
(健康福祉部地域福祉課）",35202,山口県,宇部市,1,,1,1,1,,1,,,50(1㎡あたり1人）,http://www.city.ube.yamaguchi.jp/kurashi/bousai/hinanbasho/index.html,
264, 則貞市営住宅集会所,ノリサダシエイジュウタクシュウカイショ,山口県宇部市則貞一丁目4-2,33.943389,131.273828,"0836-34-8325
(健康福祉部地域福祉課）",35202,山口県,宇部市,1,,1,,1,,1,,,80(1㎡あたり1人）,http://www.city.ube.yamaguchi.jp/kurashi/bousai/hinanbasho/index.html,
265, 五十目山会館,ゴジュウメヤマカイカン,山口県宇部市草江三丁目11-38,33.935251,131.268865,"0836-34-8325
(健康福祉部地域福祉課）",35202,山口県,宇部市,1,,1,,1,,1,,,50(1㎡あたり1人）,http://www.city.ube.yamaguchi.jp/kurashi/bousai/hinanbasho/index.html,
266, 恩田運動公園,オンダウンドウコウエン,山口県宇部市恩田町四丁目,33.944144,131.269976,"0836-34-8325
(健康福祉部地域福祉課）",35202,山口県,宇部市,,,,1,1,,,,,28468(1㎡あたり1人）,http://www.city.ube.yamaguchi.jp/kurashi/bousai/hinanbasho/index.html,
267, 岬ふれあいセンター,ミサキフレアイセンター,山口県宇部市明神町一丁目3-16,33.930864,131.261226,"0836-34-8325
(健康福祉部地域福祉課）",35202,山口県,宇部市,1,,1,,1,,1,,1,524(1㎡あたり1人）,http://www.city.ube.yamaguchi.jp/kurashi/bousai/hinanbasho/index.html,
268, 岬小学校,ミサキショウガッコウ,山口県宇部市松山町五丁目8-10,33.934993,131.259705,"0836-34-8325
(健康福祉部地域福祉課）",35202,山口県,宇部市,1,,1,,1,1,1,,1,6980(1㎡あたり1人）,http://www.city.ube.yamaguchi.jp/kurashi/bousai/hinanbasho/index.html,
269, 見初ふれあいセンター,ミゾメフレアイセンター,山口県宇部市昭和町一丁目3-6,33.942695,131.254505,"0836-34-8325
(健康福祉部地域福祉課）",35202,山口県,宇部市,1,,1,,1,,1,,1,318(1㎡あたり1人）,http://www.city.ube.yamaguchi.jp/kurashi/bousai/hinanbasho/index.html,
270, 見初小学校,ミゾメショウガッコウ,山口県宇部市松山町二丁目4-42,33.943527,131.255565,"0836-34-8325
(健康福祉部地域福祉課）",35202,山口県,宇部市,1,,1,1,1,1,1,,1,12294(1㎡あたり1人）,http://www.city.ube.yamaguchi.jp/kurashi/bousai/hinanbasho/index.html,
271, 神原ふれあいセンター,カミハラフレアイセンター,山口県宇部市松山町一丁目5-16,33.947232,131.253815,"0836-34-8325
(健康福祉部地域福祉課）",35202,山口県,宇部市,1,,1,1,1,,1,,1,298(1㎡あたり1人）,http://www.city.ube.yamaguchi.jp/kurashi/bousai/hinanbasho/index.html,
272, 神原小学校,カミハラショウガッコウ,山口県宇部市神原町一丁目1-1,33.95188,131.256111,"0836-34-8325
(健康福祉部地域福祉課）",35202,山口県,宇部市,1,,1,,1,1,1,,1,11014(1㎡あたり1人）,http://www.city.ube.yamaguchi.jp/kurashi/bousai/hinanbasho/index.html,
273, 勤労青少年会館,キンロウセイショウネンカイカン,山口県宇部市松山町一丁目12-1,33.947969,131.252192,"0836-34-8325
(健康福祉部地域福祉課）",35202,山口県,宇部市,1,,1,,1,,1,,1,2344(1㎡あたり1人）,http://www.city.ube.yamaguchi.jp/kurashi/bousai/hinanbasho/index.html,
274, 信行寺,シンギョウジ,山口県宇部市常盤町一丁目6-13,33.950607,131.248611,"0836-34-8325
(健康福祉部地域福祉課）",35202,山口県,宇部市,1,,1,1,1,,1,,,50(1㎡あたり1人）,http://www.city.ube.yamaguchi.jp/kurashi/bousai/hinanbasho/index.html,
275, 中央公園,チュウオウコウエン,山口県宇部市神原町一丁目,33.948664,131.258205,"0836-34-8325
(健康福祉部地域福祉課）",35202,山口県,宇部市,,,,1,1,1,,,,25757(1㎡あたり1人）,http://www.city.ube.yamaguchi.jp/kurashi/bousai/hinanbasho/index.html,
276, 琴芝ふれあいセンター,コトシバフレアイセンター,山口県宇部市西梶返二丁目10-1,33.952929,131.263243,"0836-34-8325
(健康福祉部地域福祉課）",35202,山口県,宇部市,1,,1,,1,,1,,1,326(1㎡あたり1人）,http://www.city.ube.yamaguchi.jp/kurashi/bousai/hinanbasho/index.html,
277, 琴芝小学校,コトシバショウガッコウ,山口県宇部市東琴芝二丁目3-48,33.954109,131.256175,"0836-34-8325
(健康福祉部地域福祉課）",35202,山口県,宇部市,1,,1,1,1,1,1,,1,10217(1㎡あたり1人）,http://www.city.ube.yamaguchi.jp/kurashi/bousai/hinanbasho/index.html,
278, 総合福祉会館,ソウゴウフクシカイカン,山口県宇部市琴芝町二丁目4-20,33.95308,131.253246,"0836-34-8325
(健康福祉部地域福祉課）",35202,山口県,宇部市,1,,1,,1,,1,,1,3111(1㎡あたり1人）,http://www.city.ube.yamaguchi.jp/kurashi/bousai/hinanbasho/index.html,
279, 神原中学校,カミハラチュウガッコウ,山口県宇部市東梶返四丁目8-1,33.949854,131.263199,"0836-34-8325
(健康福祉部地域福祉課）",35202,山口県,宇部市,1,,1,1,1,1,1,,1,13593(1㎡あたり1人）,http://www.city.ube.yamaguchi.jp/kurashi/bousai/hinanbasho/index.html,
280, 常盤中学校,トキワチュウガッコウ,山口県宇部市上野中町3-40,33.952038,131.27341,"0836-34-8325
(健康福祉部地域福祉課）",35202,山口県,宇部市,1,,1,1,1,1,1,,1,16181(1㎡あたり1人）,http://www.city.ube.yamaguchi.jp/kurashi/bousai/hinanbasho/index.html,
281, 隣保館上宇部会館（上宇部ふれあいセンター）,リンポカンカミウベカイカン（カミウベフレアイセンター）,山口県宇部市中村二丁目6-15,33.962949,131.262682,"0836-34-8325
(健康福祉部地域福祉課）",35202,山口県,宇部市,1,1,1,1,1,,1,,1,562(1㎡あたり1人）,http://www.city.ube.yamaguchi.jp/kurashi/bousai/hinanbasho/index.html,
282, 上宇部小学校,カミウベショウガッコウ,山口県宇部市大小路三丁目2-17,33.966736,131.269015,"0836-34-8325
(健康福祉部地域福祉課）",35202,山口県,宇部市,1,1,1,1,1,1,1,,1,17537(1㎡あたり1人）,http://www.city.ube.yamaguchi.jp/kurashi/bousai/hinanbasho/index.html,
283, 上宇部中学校,カミウベチュウガッコウ,山口県宇部市沼二丁目4-8,33.960474,131.265707,"0836-34-8325
(健康福祉部地域福祉課）",35202,山口県,宇部市,1,1,1,1,1,1,1,,1,14750(1㎡あたり1人）,http://www.city.ube.yamaguchi.jp/kurashi/bousai/hinanbasho/index.html,
284, 琴崎八幡宮,コトザキハチマングウ,山口県宇部市大字上宇部571-1,33.971865,131.270458,"0836-34-8325
(健康福祉部地域福祉課）",35202,山口県,宇部市,1,1,1,,1,,1,,,1000(1㎡あたり1人）,http://www.city.ube.yamaguchi.jp/kurashi/bousai/hinanbasho/index.html,
285, 川上ふれあいセンター,カワカミフレアイセンター,山口県宇部市大字川上81-1,33.976496,131.279347,"0836-34-8325
(健康福祉部地域福祉課）",35202,山口県,宇部市,1,1,1,1,1,,1,,1,264(1㎡あたり1人）,http://www.city.ube.yamaguchi.jp/kurashi/bousai/hinanbasho/index.html,
286, 川上中学校,カワカミチュウガッコウ,山口県宇部市大字西岐波6531番地,33.977099,131.284605,"0836-34-8325
(健康福祉部地域福祉課）",35202,山口県,宇部市,1,1,1,1,1,1,1,,1,18499(1㎡あたり1人）,http://www.city.ube.yamaguchi.jp/kurashi/bousai/hinanbasho/index.html,
287, ひらき台集会所,ヒラキダイシュウカイショ,山口県宇部市大字上宇部150-117,33.972438,131.278886,"0836-34-8325
(健康福祉部地域福祉課）",35202,山口県,宇部市,1,1,1,1,1,,1,,,50(1㎡あたり1人）,http://www.city.ube.yamaguchi.jp/kurashi/bousai/hinanbasho/index.html,
288, 小羽山ふれあいセンター,オバヤマフレアイセンター,山口県宇部市北小羽山町二丁目6-50,33.978476,131.259536,"0836-34-8325
(健康福祉部地域福祉課）",35202,山口県,宇部市,1,1,1,,1,,1,,1,346(1㎡あたり1人）,http://www.city.ube.yamaguchi.jp/kurashi/bousai/hinanbasho/index.html,
289, 小羽山小学校,オバヤマショウガッコウ,山口県宇部市東小羽山町一丁目4-13,33.978499,131.263103,"0836-34-8325
(健康福祉部地域福祉課）",35202,山口県,宇部市,1,1,1,1,1,1,1,,1,12040(1㎡あたり1人）,http://www.city.ube.yamaguchi.jp/kurashi/bousai/hinanbasho/index.html,
290, 新川ふれあいセンター,シンカワフレアイセンター,山口県宇部市朝日町8-20,33.958647,131.244725,"0836-34-8325
(健康福祉部地域福祉課）",35202,山口県,宇部市,1,1,1,,1,,1,,1,372(1㎡あたり1人）,http://www.city.ube.yamaguchi.jp/kurashi/bousai/hinanbasho/index.html,
291, 新川小学校,シンカワショウガッコウ,山口県宇部市西小串一丁目4-25,33.963249,131.247903,"0836-34-8325
(健康福祉部地域福祉課）",35202,山口県,宇部市,1,1,1,1,1,1,1,,1,15204(1㎡あたり1人）,http://www.city.ube.yamaguchi.jp/kurashi/bousai/hinanbasho/index.html,
292, 桃山中学校,モモヤマチュウガッコウ,山口県宇部市大字小串671番地,33.971803,131.25026,"0836-34-8325
(健康福祉部地域福祉課）",35202,山口県,宇部市,1,1,1,1,1,1,1,,1,17363(1㎡あたり1人）,http://www.city.ube.yamaguchi.jp/kurashi/bousai/hinanbasho/index.html,
293, 新川４区自治会集会所,シンカワ４クジチカイシュウカイショ,山口県宇部市大字小串154-11,33.968384,131.248007,"0836-34-8325
(健康福祉部地域福祉課）",35202,山口県,宇部市,1,1,1,1,1,,1,,,50(1㎡あたり1人）,http://www.city.ube.yamaguchi.jp/kurashi/bousai/hinanbasho/index.html,
294, 東桃山集会所,ヒガシモモヤマシュウカイショ,山口県宇部市大字中宇部2000-5,33.974763,131.248977,"0836-34-8325
(健康福祉部地域福祉課）",35202,山口県,宇部市,1,1,1,1,1,,1,,,20(1㎡あたり1人）,http://www.city.ube.yamaguchi.jp/kurashi/bousai/hinanbasho/index.html,
295, 宗隣寺,ソウリンジ,山口県宇部市大字小串210番地,33.966198,131.252446,"0836-34-8325
(健康福祉部地域福祉課）",35202,山口県,宇部市,1,1,1,1,1,,1,,,50(1㎡あたり1人）,http://www.city.ube.yamaguchi.jp/kurashi/bousai/hinanbasho/index.html,
296, 鵜の島ふれあいセンター,ウノシマフレアイセンター,山口県宇部市鵜の島町7-6,33.962072,131.238057,"0836-34-8325
(健康福祉部地域福祉課）",35202,山口県,宇部市,1,1,1,,1,,1,,1,226(1㎡あたり1人）,http://www.city.ube.yamaguchi.jp/kurashi/bousai/hinanbasho/index.html,
297, 鵜ノ島小学校,ウノシマショウガッコウ,山口県宇部市小松原町二丁目10-25,33.963752,131.239526,"0836-34-8325
(健康福祉部地域福祉課）",35202,山口県,宇部市,1,1,1,1,1,1,1,,1,14075(1㎡あたり1人）,http://www.city.ube.yamaguchi.jp/kurashi/bousai/hinanbasho/index.html,
298, 浄円寺,ジョウエンジ,山口県宇部市上町一丁目5-12,33.958986,131.239264,"0836-34-8325
(健康福祉部地域福祉課）",35202,山口県,宇部市,1,1,1,,1,,1,,,50(1㎡あたり1人）,http://www.city.ube.yamaguchi.jp/kurashi/bousai/hinanbasho/index.html,
299, 藤山ふれあいセンター,フジヤマフレアイセンター,山口県宇部市文京町11-13,33.974815,131.227596,"0836-34-8325
(健康福祉部地域福祉課）",35202,山口県,宇部市,1,1,1,1,,,1,,1,296(1㎡あたり1人）,http://www.city.ube.yamaguchi.jp/kurashi/bousai/hinanbasho/index.html,
300, 藤山小学校,フジヤマショウガッコウ,山口県宇部市上条四丁目4-1,33.974878,131.232072,"0836-34-8325
(健康福祉部地域福祉課）",35202,山口県,宇部市,1,1,1,1,1,1,1,,1,10096(1㎡あたり1人）,http://www.city.ube.yamaguchi.jp/kurashi/bousai/hinanbasho/index.html,
301, 宇部フロンティア大学,ウベフロンティアダイガク,山口県宇部市文京台二丁目1-1,33.980685,131.234237,"0836-34-8325
(健康福祉部地域福祉課）",35202,山口県,宇部市,1,1,1,1,1,,1,,,1000(1㎡あたり1人）,http://www.city.ube.yamaguchi.jp/kurashi/bousai/hinanbasho/index.html,
302, 三嶋会館,ミシマカイカン,山口県宇部市居能町二丁目8-22,33.966934,131.229651,"0836-34-8325
(健康福祉部地域福祉課）",35202,山口県,宇部市,1,1,1,,1,,1,,,50(1㎡あたり1人）,http://www.city.ube.yamaguchi.jp/kurashi/bousai/hinanbasho/index.html,
303, 善福寺,ゼンプクジ,山口県宇部市上条三丁目8-8,33.972632,131.234722,"0836-34-8325
(健康福祉部地域福祉課）",35202,山口県,宇部市,1,1,1,,1,,1,,,50(1㎡あたり1人）,http://www.city.ube.yamaguchi.jp/kurashi/bousai/hinanbasho/index.html,
304, 平原会館,ヒラバラカイカン,山口県宇部市東平原二丁目14-8,33.977839,131.228069,"0836-34-8325
(健康福祉部地域福祉課）",35202,山口県,宇部市,1,1,1,,1,,1,,,50(1㎡あたり1人）,http://www.city.ube.yamaguchi.jp/kurashi/bousai/hinanbasho/index.html,
305, 松崎会館,マツザキカイカン,山口県宇部市松崎町3-5,33.98277,131.225037,"0836-34-8325
(健康福祉部地域福祉課）",35202,山口県,宇部市,1,1,1,,1,,1,,,50(1㎡あたり1人）,http://www.city.ube.yamaguchi.jp/kurashi/bousai/hinanbasho/index.html,
306, 宇部典礼会館,ウベテンレイカイカン,山口県宇部市西平原二丁目9-33,33.976353,131.222623,"0836-34-8325
(健康福祉部地域福祉課）",35202,山口県,宇部市,1,1,1,1,,,1,,,500(1㎡あたり1人）,http://www.city.ube.yamaguchi.jp/kurashi/bousai/hinanbasho/index.html,
307, 岩鼻公園,イワハナコウエン,山口県宇部市松崎町　他,33.981086,131.224801,"0836-34-8325
(健康福祉部地域福祉課）",35202,山口県,宇部市,,,,1,1,,,,,11684(1㎡あたり1人）,http://www.city.ube.yamaguchi.jp/kurashi/bousai/hinanbasho/index.html,
308, 原ふれあいセンター,ハラフレアイセンター,山口県宇部市大字妻崎開作1990番地,33.971395,131.202289,"0836-34-8325
(健康福祉部地域福祉課）",35202,山口県,宇部市,1,1,1,,1,,1,,1,430(1㎡あたり1人）,http://www.city.ube.yamaguchi.jp/kurashi/bousai/hinanbasho/index.html,
309, 原小学校,ハラショウガッコウ,山口県宇部市大字東須恵4267番地,33.966069,131.203452,"0836-34-8325
(健康福祉部地域福祉課）",35202,山口県,宇部市,1,1,1,1,1,1,1,,1,12112(1㎡あたり1人）,http://www.city.ube.yamaguchi.jp/kurashi/bousai/hinanbasho/index.html,
310, 若山自治会集会所,ワカヤマジチカイシュウカイショ,山口県宇部市大字東須恵1129-14,33.972654,131.188411,"0836-34-8325
(健康福祉部地域福祉課）",35202,山口県,宇部市,1,1,1,1,1,,1,,,30(1㎡あたり1人）,http://www.city.ube.yamaguchi.jp/kurashi/bousai/hinanbasho/index.html,
311, 光陽台自治会館,コウヨウダイジチカイカン,山口県宇部市大字東須恵726番地,33.978803,131.196541,"0836-34-8325
(健康福祉部地域福祉課）",35202,山口県,宇部市,1,1,1,1,1,,1,,,100(1㎡あたり1人）,http://www.city.ube.yamaguchi.jp/kurashi/bousai/hinanbasho/index.html,
312, 厚南市民センター,コウナンシミンセンター,山口県宇部市厚南中央三丁目1-2,33.994208,131.217839,"0836-34-8325
(健康福祉部地域福祉課）",35202,山口県,宇部市,1,1,1,1,1,,1,,1,316(1㎡あたり1人）,http://www.city.ube.yamaguchi.jp/kurashi/bousai/hinanbasho/index.html,
313, 厚南小学校,コウナンショウガッコウ,山口県宇部市大字東須恵234番地,33.994683,131.207697,"0836-34-8325
(健康福祉部地域福祉課）",35202,山口県,宇部市,1,1,1,1,1,1,1,,1,12814(1㎡あたり1人）,http://www.city.ube.yamaguchi.jp/kurashi/bousai/hinanbasho/index.html,
314, 西宇部ふれあいセンター,ニシウベフレアイセンター,山口県宇部市西宇部北三丁目9-15,34.005393,131.220317,"0836-34-8325
(健康福祉部地域福祉課）",35202,山口県,宇部市,1,1,1,1,1,,1,,1,286(1㎡あたり1人）,http://www.city.ube.yamaguchi.jp/kurashi/bousai/hinanbasho/index.html,
315, 西宇部小学校,ニシウベショウガッコウ,山口県宇部市大字際波527-1,34.009452,131.231107,"0836-34-8325
(健康福祉部地域福祉課）",35202,山口県,宇部市,1,1,1,1,1,1,1,,1,12764(1㎡あたり1人）,http://www.city.ube.yamaguchi.jp/kurashi/bousai/hinanbasho/index.html,
316, 宇部西ﾘﾊﾋﾞﾘﾃｰｼｮﾝ病院,ウベニシリハビリテーションビョウイン,山口県宇部市大字沖ノ旦797,33.995897,131.225444,"0836-34-8325
(健康福祉部地域福祉課）",35202,山口県,宇部市,1,1,1,1,1,,1,,,50(1㎡あたり1人）,http://www.city.ube.yamaguchi.jp/kurashi/bousai/hinanbasho/index.html,
317, 迫条自治会館,サコジョウジチカイカン,山口県宇部市厚南北四丁目19-17,34.004636,131.214514,"0836-34-8325
(健康福祉部地域福祉課）",35202,山口県,宇部市,1,1,1,,1,,1,,,15(1㎡あたり1人）,http://www.city.ube.yamaguchi.jp/kurashi/bousai/hinanbasho/index.html,
318, 西宇部町自治会館,ニシウベチョウジチカイカン,山口県宇部市西宇部南四丁目4-6,34.002671,131.222691,"0836-34-8325
(健康福祉部地域福祉課）",35202,山口県,宇部市,1,1,1,1,1,,1,,,100(1㎡あたり1人）,http://www.city.ube.yamaguchi.jp/kurashi/bousai/hinanbasho/index.html,
319, 春日町自治会館,カスガチョウジチカイカン,山口県宇部市大字際波247-3,34.012884,131.218923,"0836-34-8325
(健康福祉部地域福祉課）",35202,山口県,宇部市,1,,1,1,1,,1,,,30(1㎡あたり1人）,http://www.city.ube.yamaguchi.jp/kurashi/bousai/hinanbasho/index.html,
320, 西ヶ丘自治会館,ニシガオカジチカイカン,山口県宇部市西宇部北七丁目12-17,34.00496,131.225518,"0836-34-8325
(健康福祉部地域福祉課）",35202,山口県,宇部市,1,,1,1,1,,1,,,50(1㎡あたり1人）,http://www.city.ube.yamaguchi.jp/kurashi/bousai/hinanbasho/index.html,
321, 黒石ふれあいセンター,クロイシフレアイセンター,山口県宇部市黒石三丁目２番３７－１２号,33.984116,131.207673,"0836-34-8325
(健康福祉部地域福祉課）",35202,山口県,宇部市,1,1,1,1,1,,1,,1,294(1㎡あたり1人）,http://www.city.ube.yamaguchi.jp/kurashi/bousai/hinanbasho/index.html,
322, 黒石小学校,クロイシショウガッコウ,山口県宇部市黒石三丁目２番３５号,33.984734,131.209025,"0836-34-8325
(健康福祉部地域福祉課）",35202,山口県,宇部市,1,1,1,1,1,1,1,,1,15562(1㎡あたり1人）,http://www.city.ube.yamaguchi.jp/kurashi/bousai/hinanbasho/index.html,
323, 黒石中学校,クロイシチュウガッコウ,山口県宇部市大字東須恵476-2,33.985633,131.196874,"0836-34-8325
(健康福祉部地域福祉課）",35202,山口県,宇部市,1,1,1,1,1,1,1,,1,20407(1㎡あたり1人）,http://www.city.ube.yamaguchi.jp/kurashi/bousai/hinanbasho/index.html,
324, 黒石公園,クロイシコウエン,山口県宇部市大字東須恵,33.985347,131.201117,"0836-34-8325
(健康福祉部地域福祉課）",35202,山口県,宇部市,,,,1,1,,,,,2583(1㎡あたり1人）,http://www.city.ube.yamaguchi.jp/kurashi/bousai/hinanbasho/index.html,
325, 厚東ふれあいセンター,コトウフレアイセンター,山口県宇部市大字棚井68-2,34.024195,131.249118,"0836-34-8325
(健康福祉部地域福祉課）",35202,山口県,宇部市,1,1,1,1,1,,1,,1,410(1㎡あたり1人）,http://www.city.ube.yamaguchi.jp/kurashi/bousai/hinanbasho/index.html,
326, 厚東小学校,コトウショウガッコウ,山口県宇部市大字棚井7-1,34.026748,131.248991,"0836-34-8325
(健康福祉部地域福祉課）",35202,山口県,宇部市,1,,1,1,1,1,1,,1,14155(1㎡あたり1人）,http://www.city.ube.yamaguchi.jp/kurashi/bousai/hinanbasho/index.html,
327, 厚東川中学校,コトウガワチュウガッコウ,山口県宇部市大字吉見1184番地,34.041545,131.264781,"0836-34-8325
(健康福祉部地域福祉課）",35202,山口県,宇部市,1,1,1,1,1,1,1,,1,9523(1㎡あたり1人）,http://www.city.ube.yamaguchi.jp/kurashi/bousai/hinanbasho/index.html,
328, 浄念寺,ジョウネンジ,山口県宇部市大字棚井744番地,34.017544,131.240826,"0836-34-8325
(健康福祉部地域福祉課）",35202,山口県,宇部市,1,1,1,,1,,1,,,300(1㎡あたり1人）,http://www.city.ube.yamaguchi.jp/kurashi/bousai/hinanbasho/index.html,
329, 温見自治会集会所,ヌクミジチカイシュウカイショ,山口県宇部市大字吉見2608-1,34.028078,131.254527,"0836-34-8325
(健康福祉部地域福祉課）",35202,山口県,宇部市,1,1,1,1,1,,1,,,60(1㎡あたり1人）,http://www.city.ube.yamaguchi.jp/kurashi/bousai/hinanbasho/index.html,
330, 末信自治会集会所,スエノブジチカイシュウカイショ,山口県宇部市大字末信57-1,34.009852,131.245478,"0836-34-8325
(健康福祉部地域福祉課）",35202,山口県,宇部市,1,1,1,,1,,1,,,50(1㎡あたり1人）,http://www.city.ube.yamaguchi.jp/kurashi/bousai/hinanbasho/index.html,
331, 広瀬公会堂,ヒロセコウカイドウ,山口県宇部市大字広瀬563-1,34.001123,131.239028,"0836-34-8325
(健康福祉部地域福祉課）",35202,山口県,宇部市,1,1,1,,1,,1,,,100(1㎡あたり1人）,http://www.city.ube.yamaguchi.jp/kurashi/bousai/hinanbasho/index.html,
332, 立熊ふれあい会館,タチクマフレアイカイカン,山口県宇部市大字吉見152-2,34.054629,131.26715,"0836-34-8325
(健康福祉部地域福祉課）",35202,山口県,宇部市,1,1,1,1,1,,1,,,60(1㎡あたり1人）,http://www.city.ube.yamaguchi.jp/kurashi/bousai/hinanbasho/index.html,
333, 中村農業構造改善ｾﾝﾀｰ,ナカムラノウギョウコウゾウカイゼンセンター,山口県宇部市大字吉見1727-5,34.039117,131.258513,"0836-34-8325
(健康福祉部地域福祉課）",35202,山口県,宇部市,1,1,1,1,1,,1,,,50(1㎡あたり1人）,http://www.city.ube.yamaguchi.jp/kurashi/bousai/hinanbasho/index.html,
334, 二俣瀬ふれあいセンター,フタマタセフレアイセンター,山口県宇部市大字車地173番地,34.056527,131.291779,"0836-34-8325
(健康福祉部地域福祉課）",35202,山口県,宇部市,1,1,,1,,,1,,1,458(1㎡あたり1人）,http://www.city.ube.yamaguchi.jp/kurashi/bousai/hinanbasho/index.html,
335, 二俣瀬小学校,フタマタセショウガッコウ,山口県宇部市大字車地36番地,34.057791,131.292421,"0836-34-8325
(健康福祉部地域福祉課）",35202,山口県,宇部市,1,1,,1,,1,1,,1,6563(1㎡あたり1人）,http://www.city.ube.yamaguchi.jp/kurashi/bousai/hinanbasho/index.html,
336, 天理教厚東分教会,テンリキョウコトウブンキョウカイ,山口県宇部市大字木田634番地,34.054392,131.285181,"0836-34-8325
(健康福祉部地域福祉課）",35202,山口県,宇部市,1,1,,1,,,1,,,50(1㎡あたり1人）,http://www.city.ube.yamaguchi.jp/kurashi/bousai/hinanbasho/index.html,
337, 上山中集会所,カミヤマナカシュウカイショ,山口県宇部市大字山中341-1,34.057034,131.318605,"0836-34-8325
(健康福祉部地域福祉課）",35202,山口県,宇部市,1,1,,1,,,1,,,50(1㎡あたり1人）,http://www.city.ube.yamaguchi.jp/kurashi/bousai/hinanbasho/index.html,
338, 小野ふれあいセンター,オノフレアイセンター,山口県宇部市大字小野8294-4,34.116673,131.320299,"0836-34-8325
(健康福祉部地域福祉課）",35202,山口県,宇部市,1,1,,1,,,1,,1,462(1㎡あたり1人）,http://www.city.ube.yamaguchi.jp/kurashi/bousai/hinanbasho/index.html,
339, 小野小学校,オノショウガッコウ,山口県宇部市大字小野8317-2,34.115626,131.320195,"0836-34-8325
(健康福祉部地域福祉課）",35202,山口県,宇部市,1,1,,1,,1,1,,1,3920(1㎡あたり1人）,http://www.city.ube.yamaguchi.jp/kurashi/bousai/hinanbasho/index.html,
340, アクトビレッジおの,アクトビレッジオノ,山口県宇部市大字小野7025番地,34.104597,131.308647,"0836-34-8325
(健康福祉部地域福祉課）",35202,山口県,宇部市,1,1,,1,,1,1,,,200(1㎡あたり1人）,http://www.city.ube.yamaguchi.jp/kurashi/bousai/hinanbasho/index.html,
341, 上小野自治会集会所,カミオノジチカイシュウカイショ,山口県宇部市大字小野3795-1,34.130211,131.321574,"0836-34-8325
(健康福祉部地域福祉課）",35202,山口県,宇部市,1,1,,,,,1,,,50(1㎡あたり1人）,http://www.city.ube.yamaguchi.jp/kurashi/bousai/hinanbasho/index.html,
342, 船木ふれあいセンター,フナキフレアイセンター,山口県宇部市大字船木179-1,34.045216,131.224887,"0836-34-8325
(健康福祉部地域福祉課）",35202,山口県,宇部市,1,1,,1,,,1,,1,430(1㎡あたり1人）,http://www.city.ube.yamaguchi.jp/kurashi/bousai/hinanbasho/index.html,
343, 船木小学校,フナキショウガッコウ,山口県宇部市大字船木4483番地,34.046708,131.216591,"0836-34-8325
(健康福祉部地域福祉課）",35202,山口県,宇部市,1,1,,1,,1,1,,1,9046(1㎡あたり1人）,http://www.city.ube.yamaguchi.jp/kurashi/bousai/hinanbasho/index.html,
344, 楠総合センター,クスノキソウゴウセンター,山口県宇部市大字船木442-11,34.045696,131.226518,"0836-34-8325
(健康福祉部地域福祉課）",35202,山口県,宇部市,1,1,,1,,,1,,1,604(1㎡あたり1人）,http://www.city.ube.yamaguchi.jp/kurashi/bousai/hinanbasho/index.html,
345, 西在集会所,ニシザイシュウカイショ,山口県宇部市大字船木3642番地,34.045717,131.209728,"0836-34-8325
(健康福祉部地域福祉課）",35202,山口県,宇部市,,1,,,,,,,,50(1㎡あたり1人）,http://www.city.ube.yamaguchi.jp/kurashi/bousai/hinanbasho/index.html,
346, 北在集会所,キタザイシュウカイショ,山口県宇部市大字船木4577-3,34.047939,131.221121,"0836-34-8325
(健康福祉部地域福祉課）",35202,山口県,宇部市,,1,,,,,,,,150(1㎡あたり1人）,http://www.city.ube.yamaguchi.jp/kurashi/bousai/hinanbasho/index.html,
347, 西山集会所,ニシヤマシュウカイショ,山口県宇部市大字船木4625-4,34.050694,131.224929,"0836-34-8325
(健康福祉部地域福祉課）",35202,山口県,宇部市,1,1,,,,,1,,,70(1㎡あたり1人）,http://www.city.ube.yamaguchi.jp/kurashi/bousai/hinanbasho/index.html,
348, 万倉ふれあいセンター,マグラフレアイセンター,山口県宇部市大字西万倉1672番地,34.071381,131.242783,"0836-34-8325
(健康福祉部地域福祉課）",35202,山口県,宇部市,1,1,,1,,,1,,1,328(1㎡あたり1人）,http://www.city.ube.yamaguchi.jp/kurashi/bousai/hinanbasho/index.html,
349, 万倉小学校,マグラショウガッコウ,山口県宇部市大字西万倉1761-1,34.072349,131.240414,"0836-34-8325
(健康福祉部地域福祉課）",35202,山口県,宇部市,1,1,,1,,1,1,,1,8672(1㎡あたり1人）,http://www.city.ube.yamaguchi.jp/kurashi/bousai/hinanbasho/index.html,
350, 神元集会所,ジンガシュウカイショ,山口県宇部市大字東万倉433-3,34.054304,131.237214,"0836-34-8325
(健康福祉部地域福祉課）",35202,山口県,宇部市,1,1,,1,,,1,,,30(1㎡あたり1人）,http://www.city.ube.yamaguchi.jp/kurashi/bousai/hinanbasho/index.html,
351, 寿福寺,ジュフクジ,山口県宇部市大字奥万倉1636番地,34.130269,131.241757,"0836-34-8325
(健康福祉部地域福祉課）",35202,山口県,宇部市,1,1,,,,,1,,,50(1㎡あたり1人）,http://www.city.ube.yamaguchi.jp/kurashi/bousai/hinanbasho/index.html,
352, 吉部ふれあいセンター,キベフレアイセンター,山口県宇部市大字東吉部3330-7,34.125113,131.282619,"0836-34-8325
(健康福祉部地域福祉課）",35202,山口県,宇部市,1,1,,1,,,1,,1,298(1㎡あたり1人）,http://www.city.ube.yamaguchi.jp/kurashi/bousai/hinanbasho/index.html,
353, 吉部小学校,キベショウガッコウ,山口県宇部市大字東吉部3425-1,34.124869,131.281916,"0836-34-8325
(健康福祉部地域福祉課）",35202,山口県,宇部市,1,1,,1,,1,1,,1,12472(1㎡あたり1人）,http://www.city.ube.yamaguchi.jp/kurashi/bousai/hinanbasho/index.html,
354, 丸尾原自治会館,マルオバラジチカイカン,山口県宇部市大字東岐波5063-11,33.969439,131.336887,"0836-34-8325
(健康福祉部地域福祉課）",35202,山口県,宇部市,1,1,1,1,1,,1,,,50(1㎡あたり1人）,http://www.city.ube.yamaguchi.jp/kurashi/bousai/hinanbasho/index.html,
355, 厚南セントヒル病院,コウナンセントヒルビョウイン,山口県宇部市大字妻崎開作108番地,33.978463,131.217106,"0836-34-8325
(健康福祉部地域福祉課）",35202,山口県,宇部市,1,1,1,1,,,1,,,140(1㎡あたり1人）,http://www.city.ube.yamaguchi.jp/kurashi/bousai/hinanbasho/index.html,
356,仁保地域交流センター,ニホチイキコウリュウセンター,山口県山口市仁保中郷1041,34.21192588,131.5589621,"083-934-2965
 (協働推進課)",35203,山口県,山口市,1,1,1,1,1,,,,1,473(1.65㎡あたり1人）,http://www.city.yamaguchi.lg.jp/soshiki/4/2836.html,
357,仁保小学校体育館,ニホショウガッコウタイイクカン,山口県山口市仁保中郷81,34.21432222,131.5559578,"083-934-2860
(教育施設管理課)",35203,山口県,山口市,1,1,1,1,1,,,,1,272(1.65㎡あたり1人）,http://www.city.yamaguchi.lg.jp/soshiki/4/2836.html,
358,仁保中学校体育館,ニホチュウガッコウタイイクカン,山口県山口市仁保中郷84,34.21566092,131.5588942,"083-934-2860
(教育施設管理課)",35203,山口県,山口市,1,1,1,1,1,,,,1,625(1.65㎡あたり1人）,http://www.city.yamaguchi.lg.jp/soshiki/4/2836.html,
359,仁保幼稚園,ニホヨウチエン,山口県山口市仁保中郷82,34.21336338,131.5557351,"083-934-2860
(教育施設管理課)",35203,山口県,山口市,1,1,1,1,1,,,,1,96(1.65㎡あたり1人）,http://www.city.yamaguchi.lg.jp/soshiki/4/2836.html,
360,小鯖地域交流センター,オサバチイキコウリュウセンター,山口県山口市下小鯖2519,34.12730904,131.5243624,"083-934-2965
(協働推進課)",35203,山口県,山口市,1,1,1,1,1,,,,1,238(1.65㎡あたり1人）,http://www.city.yamaguchi.lg.jp/soshiki/4/2836.html,
361,小鯖小学校体育館,オサバショウガッコウタイイクカン,山口県山口市下小鯖2519,34.12778863,131.525151,"083-934-2860
(教育施設管理課)",35203,山口県,山口市,1,1,1,1,1,,,,1,286(1.65㎡あたり1人）,http://www.city.yamaguchi.lg.jp/soshiki/4/2836.html,
362,小鯖幼稚園,オサバヨウチエン,山口県山口市下小鯖2519,34.12736899,131.5245274,"083-934-2860
(教育施設管理課)",35203,山口県,山口市,1,1,1,1,1,,,,1,96(1.65㎡あたり1人）,http://www.city.yamaguchi.lg.jp/soshiki/4/2836.html,
363,大内地域交流センター,オオウチチイキコウリュウセンター,山口県山口市大内矢田北1-10-11,34.15967851,131.5027013,"083-934-2965
(協働推進課)",35203,山口県,山口市,1,1,1,1,1,,,,1,378(1.65㎡あたり1人）,http://www.city.yamaguchi.lg.jp/soshiki/4/2836.html,
364,大内小学校体育館,オオウチショウガッコウタイイクカン,山口県山口市大内矢田北1-16-1,34.15705898,131.4992978,"083-934-2862
(教育施設管理課)",35203,山口県,山口市,1,1,1,1,1,,,,1,375(1.65㎡あたり1人）,http://www.city.yamaguchi.lg.jp/soshiki/4/2836.html,
365,大内小学校校舎,オオウチショウガッコウコウシャ,山口県山口市大内矢田北1-16-1,34.1572432,131.4998959,"083-934-2860
(教育施設管理課)",35203,山口県,山口市,1,1,1,1,1,,,,1,153(1.65㎡あたり1人）,http://www.city.yamaguchi.lg.jp/soshiki/4/2836.html,
366,大内南小学校体育館,オオウチミナミショウガッコウタイイクカン,山口県山口市大内矢田南2-4-1,34.15054327,131.4966671,"083-934-2860
(教育施設管理課)",35203,山口県,山口市,1,1,1,1,1,,,,1,320(1.65㎡あたり1人）,http://www.city.yamaguchi.lg.jp/soshiki/4/2836.html,
367,大内南小学校校舎,オオウチミナミショウガッコウコウシャ,山口県山口市大内矢田南2-4-1,34.15070308,131.4972196,"083-934-2860
(教育施設管理課)",35203,山口県,山口市,1,1,1,1,1,,,,1,1723(1.65㎡あたり1人）,http://www.city.yamaguchi.lg.jp/soshiki/4/2836.html,
368,大内中学校体育館,オオウチチュウガッコウタイイクカン,山口県山口市大内長野555,34.1537412,131.520517,"083-934-2860
(教育施設管理課)",35203,山口県,山口市,1,1,1,1,1,,,,1,480(1.65㎡あたり1人）,http://www.city.yamaguchi.lg.jp/soshiki/4/2836.html,
369,大内幼稚園,オオウチヨウチエン,山口県大内矢田北1-11-24,34.15868241,131.5013627,"083-934-2860
(教育施設管理課)",35203,山口県,山口市,1,1,1,1,1,,,,1,144(1.65㎡あたり1人）,http://www.city.yamaguchi.lg.jp/soshiki/4/2836.html,
370,やまぐちリフレッシュパーク,ヤマグチリフレッシュパーク,山口県山口市大内長野1107,34.15930781,131.5241537,"083-934-2873
(スポーツ交流課)",35203,山口県,山口市,1,,1,1,1,,,,1,1070(1.65㎡あたり1人）,http://www.city.yamaguchi.lg.jp/soshiki/4/2836.html,
371,山口県立山口中央高等学校アリーナ,ヤマグチケンリツヤマグチチュウオウコウトウガッコウアリーナ,山口県山口市宮島町6-1,34.16647213,131.4790774,"083-922-0032
(中央高校)",35203,山口県,山口市,,1,1,1,1,,,,1,302(1.65㎡あたり1人）,http://www.city.yamaguchi.lg.jp/soshiki/4/2836.html,
372,宮野地域交流センター,ミヤノチイキコウリュウセンター,山口県山口市宮野下3054,34.199878,131.507437,"083-934-2965
(協働推進課)",35203,山口県,山口市,,1,1,1,1,,,,1,583(1.65㎡あたり1人）,http://www.city.yamaguchi.lg.jp/soshiki/4/2836.html,
373,宮野小学校体育館,ミヤノショウガッコウタイイクカン,山口県山口市宮野下3017,34.20035377,131.5062265,"083-934-2860
(教育施設管理課)",35203,山口県,山口市,1,1,1,1,1,,,,1,364(1.65㎡あたり1人）,http://www.city.yamaguchi.lg.jp/soshiki/4/2836.html,
374,宮野小学校校舎,ミヤノショウガッコウコウシャ,山口県山口市宮野下3017,34.19967975,131.5061358,"083-934-2860
(教育施設管理課)",35203,山口県,山口市,1,1,1,1,1,,,,1,1174(1.65㎡あたり1人）,http://www.city.yamaguchi.lg.jp/soshiki/4/2836.html,
375,宮野中学校体育館,ミヤノチュウガッコウタイイクカン,山口県山口市桜畠4-9-1,34.19752938,131.5017135,"083-934-2860
(教育施設管理課)",35203,山口県,山口市,1,1,1,1,1,,,,1,359(1.65㎡あたり1人）,http://www.city.yamaguchi.lg.jp/soshiki/4/2836.html,
376,宮野中学校校舎,ミヤノチュウガッコウコウシャ,山口県山口市桜畠4-9-1,34.19764663,131.5013788,"083-934-2860
(教育施設管理課)",35203,山口県,山口市,1,,1,1,1,,,,1,1368(1.65㎡あたり1人）,http://www.city.yamaguchi.lg.jp/soshiki/4/2836.html,
377,宮野幼稚園,ミヤノヨウチエン,山口県山口市宮野下3000-1,34.19918623,131.5051875,"083-934-2860
(教育施設管理課)",35203,山口県,山口市,1,1,1,1,1,,,,1,220(1.65㎡あたり1人）,http://www.city.yamaguchi.lg.jp/soshiki/4/2836.html,
378,山口市スポーツの森,ヤマグチシスポーツノモリ,山口県山口市宮野上237,34.20758392,131.5067201,"083-934-2873
(スポーツ交流課)",35203,山口県,山口市,1,1,1,1,1,,,,1,4500(1.65㎡あたり1人）,http://www.city.yamaguchi.lg.jp/soshiki/4/2836.html,
379,山口ふれあい館,ヤマグチフレアイカン,山口県山口市宮野上1222,34.21952277,131.5129284,"083-934-2873
(スポーツ交流課)",35203,山口県,山口市,1,,1,1,1,,,,1,550(1.65㎡あたり1人）,http://www.city.yamaguchi.lg.jp/soshiki/4/2836.html,
380,三の宮保育園,サンノミヤホイクエン,山口県山口市芝崎町9-73,34.18822889,131.4891687,"083-934-2798
(こども家庭課)",35203,山口県,山口市,1,1,1,,1,,,,1,163(1.65㎡あたり1人）,http://www.city.yamaguchi.lg.jp/soshiki/4/2836.html,
381,公立大学法山口県立大学体育館,コウリツダイガクホウヤマグチケンリツダイガクタイイクカン,山口県山口市桜畠三丁目2-1,34.19464294,131.4978001,"083-928-0211
(県立大学)",35203,山口県,山口市,1,1,1,,1,,,,1,525(1.65㎡あたり1人）,http://www.city.yamaguchi.lg.jp/soshiki/4/2836.html,
382,社会福祉法人ふしの学園地域交流　　　　　　　　　スペース・デイサービス・和室,シャカイフクシホウジンフシノガクエンチイキコウリュウスペース・デイサービス・ワシツ,山口県山口市宮野上3346,34.193692,131.517591,"083-928-0415
(ふしの学園)",35203,山口県,山口市,1,1,1,,1,,,,1,159(1.65㎡あたり1人）,http://www.city.yamaguchi.lg.jp/soshiki/4/2836.html,
383,大殿地域交流センター,オオドノチイキコウリュウセンター,山口県山口市大殿大路120-4,34.183315,131.479809,"083-934-2965
(協働推進課)",35203,山口県,山口市,1,1,1,1,1,,,,1,333(1.65㎡あたり1人）,http://www.city.yamaguchi.lg.jp/soshiki/4/2836.html,
384,大殿小学校体育館,オオドノショウガッコウタイイクカン,山口県山口市大殿大路213,34.18320535,131.4817017,"083-934-2860
(教育施設管理課)",35203,山口県,山口市,,1,1,1,1,,,,1,376(1.65㎡あたり1人）,http://www.city.yamaguchi.lg.jp/soshiki/4/2836.html,
385,大殿中学校体育館,オオドノチュウガッコウタイイクカン,山口県山口市古熊1-4-1,34.17707561,131.483954,"083-934-2860
(教育施設管理課)",35203,山口県,山口市,1,1,1,1,1,,,,1,540(1.65㎡あたり1人）,http://www.city.yamaguchi.lg.jp/soshiki/4/2836.html,
386,山口ふるさと伝承総合センター,ヤマグチフルサトデンショウソウゴウセンター,山口県山口市下竪小路12,34.18354188,131.4781653,"083-934-2719
(ふるさと産業振興課)",35203,山口県,山口市,1,1,1,1,1,,,,1,120(1.65㎡あたり1人）,http://www.city.yamaguchi.lg.jp/soshiki/4/2836.html,
387,社会福祉センターしらさぎ会館３階・４階,シャカイフクシセンターシラサギカイカン３カイ・４カイ,山口県山口市堂の前町1-5,34.18074126,131.4806983,"083-922-3666
(しらさぎ会館)",35203,山口県,山口市,1,1,1,,1,,,,1,123(1.65㎡あたり1人）,http://www.city.yamaguchi.lg.jp/soshiki/4/2836.html,
388,白石地域交流センター,シライシチイキコウリュウセンター,山口県山口市本町1-1-25,34.17406107,131.4735952,"083-934-2965
(協働推進課)",35203,山口県,山口市,1,1,1,1,1,,,,1,399(1.65㎡あたり1人）,http://www.city.yamaguchi.lg.jp/soshiki/4/2836.html,
389,白石小学校体育館,シライシショウガッコウタイイクカン,山口県山口市白石1-10-1,34.17704657,131.4708435,"083-934-2860
(教育施設管理課)",35203,山口県,山口市,1,1,1,1,1,,,,1,266(1.65㎡あたり1人）,http://www.city.yamaguchi.lg.jp/soshiki/4/2836.html,
390,白石中学校体育館,シライシチュウガッコウタイイクカン,山口県山口市白石2-7-1,34.17652376,131.4697797,"083-934-2860
(教育施設管理課)",35203,山口県,山口市,1,1,1,1,1,,,,1,403(1.65㎡あたり1人）,http://www.city.yamaguchi.lg.jp/soshiki/4/2836.html,
391,山口市民会館,ヤマグチシミンカイカン,山口県山口市中央2-5-1,34.17725664,131.4737147,"083-934-2717
(文化交流課)",35203,山口県,山口市,1,1,1,1,1,,,,1,1000(1.65㎡あたり1人）,http://www.city.yamaguchi.lg.jp/soshiki/4/2836.html,
392,山口情報芸術センター,ヤマグチジョウホウゲイジュツセンター,山口県山口市中園町7-7,34.16956715,131.4673052,"083-934-2717
(文化交流課)",35203,山口県,山口市,1,1,1,1,1,,,,1,1024(1.65㎡あたり1人）,http://www.city.yamaguchi.lg.jp/soshiki/4/2836.html,
393,山口保育園,ヤマグチホイクエン,山口県山口市旭通り1-6-19,34.168749,131.471236,"083-934-2798
(こども家庭課)",35203,山口県,山口市,1,1,1,1,1,,,,1,591(1.65㎡あたり1人）,http://www.city.yamaguchi.lg.jp/soshiki/4/2836.html,
394,湯田地域交流センター,ユダチイキコウリュウセンター,山口県山口市湯田温泉5-5-50,34.1680795,131.4566139,"083-934-2965
(協働推進課)",35203,山口県,山口市,1,1,1,1,1,,,,1,352(1.65㎡あたり1人）,http://www.city.yamaguchi.lg.jp/soshiki/4/2836.html,
395,湯田小学校体育館,ユダショウガッコウタイイクカン,山口県山口市元町2-26,34.16977025,131.4584977,"083-934-2860
(教育施設管理課)",35203,山口県,山口市,1,1,1,1,1,,,,1,320(1.65㎡あたり1人）,http://www.city.yamaguchi.lg.jp/soshiki/4/2836.html,
396,湯田中学校体育館,ユダチュウガッコウタイイクカン,山口県山口市楠木町7-1,34.17204841,131.4525362,"083-934-2860
(教育施設管理課)",35203,山口県,山口市,1,1,1,1,1,,,,1,357(1.65㎡あたり1人）,http://www.city.yamaguchi.lg.jp/soshiki/4/2836.html,
397,"山口勤労者総合福祉センター
（サンフレッシュ）",ヤマグチキンロウシャソウゴウフクシセンター（サンフレッシュ）,山口県山口市湯田温泉五丁目5-22,34.16846527,131.4561702,"083-934-2719
(ふるさと産業振興課)",35203,山口県,山口市,1,1,1,1,1,,,,1,400(1.65㎡あたり1人）,http://www.city.yamaguchi.lg.jp/soshiki/4/2836.html,
398,山口隣保館,ヤマグチリンポカン,山口県山口市三和町3-1,34.16855575,131.4706153,"083-934-2767
(人権推進課)",35203,山口県,山口市,1,1,1,,1,,,,1,173(1.65㎡あたり1人）,http://www.city.yamaguchi.lg.jp/soshiki/4/2836.html,
399,山口隣保館　別館,ヤマグチリンポカン　ベッカン,山口県山口市三和町13-19,34.16638929,131.4688487,"083-934-2767
(人権推進課)",35203,山口県,山口市,1,1,1,,1,,,,1,229(1.65㎡あたり1人）,http://www.city.yamaguchi.lg.jp/soshiki/4/2836.html,
400,山口第二保育園,ヤマグチダイニホイクエン,山口県山口市三和町9-2,34.168138,131.469264,"083-934-2798
(こども家庭課)",35203,山口県,山口市,1,1,1,,1,,,,1,100(1.65㎡あたり1人）,http://www.city.yamaguchi.lg.jp/soshiki/4/2836.html,
401,楠木保育園,クスノキホイクエン,山口県山口市楠木町1-44,34.170026,131.454599,"083-934-2798
(こども家庭課)",35203,山口県,山口市,1,1,1,,1,,,,1,142(1.65㎡あたり1人）,http://www.city.yamaguchi.lg.jp/soshiki/4/2836.html,
402,日本郵政㈱かんぽの宿湯田会議室,ニホンユウセイ㈱カンポノヤドユダカイギシツ,山口県山口市神田町1-42,34.17183461,131.4574723,"083-922-5226
(かんぽの宿)",35203,山口県,山口市,1,1,1,,1,,,,1,100(1.65㎡あたり1人）,http://www.city.yamaguchi.lg.jp/soshiki/4/2836.html,
403,障害者支援施設なでしこ園地域交流スペース,ショウガイシャシエンシセツナデシコエンチイキコウリュウスペース,山口県山口市朝倉町4-55,34.17645038,131.4528041,"083-934-5200
(なでしこ園)",35203,山口県,山口市,1,1,1,,1,,,,1,120(1.65㎡あたり1人）,http://www.city.yamaguchi.lg.jp/soshiki/4/2836.html,
404,山口刑務所鍛錬場,ヤマグチケイムショタンレンジョウ,山口県山口市松美町5-6,34.1650969,131.4615816,083-922-1450,35203,山口県,山口市,1,1,1,1,1,,,,1,229(1.65㎡あたり1人）,http://www.city.yamaguchi.lg.jp/soshiki/4/2836.html,
405,山口刑務所職員待機所,ヤマグチケイムショショクインタイキショ,山口県山口市松美町5-25,34.1650774,131.4614039,083-922-1450,35203,山口県,山口市,1,1,1,1,1,,,,1,83(1.65㎡あたり1人）,http://www.city.yamaguchi.lg.jp/soshiki/4/2836.html,
406,吉敷地域交流センター,ヨシキチイキコウリュウセンター,山口県山口市吉敷佐畑1-4-1,34.166343,131.432643,"083-934-2965
(協働推進課)",35203,山口県,山口市,1,1,1,1,1,,,,1,405(1.65㎡あたり1人）,http://www.city.yamaguchi.lg.jp/soshiki/4/2836.html,
407,良城小学校体育館,リョウジョウショウガッコウタイイクカン,山口県山口市吉敷佐畑3-3-3,34.1661975,131.4293788,"083-934-2860
(教育施設管理課)",35203,山口県,山口市,1,1,1,1,1,,,,1,343(1.65㎡あたり1人）,http://www.city.yamaguchi.lg.jp/soshiki/4/2836.html,
408,鴻南中学校体育館,コウナンチュウガッコウタイイクカン,山口県山口市維新公園4-7-1,34.15359103,131.4342866,"083-934-2860
(教育施設管理課)",35203,山口県,山口市,1,1,1,1,1,,,,1,451(1.65㎡あたり1人）,http://www.city.yamaguchi.lg.jp/soshiki/4/2836.html,
409,鴻南中学校校舎,コウナンチュウガッコウコウシャ,山口県山口市維新公園4-7-1,34.1542658,131.4345012,"083-934-2860
(教育施設管理課)",35203,山口県,山口市,1,1,1,1,1,,,,1,2047(1.65㎡あたり1人）,http://www.city.yamaguchi.lg.jp/soshiki/4/2836.html,
410,吉敷幼稚園,ヨシキヨウチエン,山口県山口市吉敷佐畑4-6-1,34.16825958,131.4296946,"083-934-2860
(教育施設管理課)",35203,山口県,山口市,1,,1,1,1,,,,1,181(1.65㎡あたり1人）,http://www.city.yamaguchi.lg.jp/soshiki/4/2836.html,
411,平川地域交流センター,ヒラカワチイキコウリュウセンター,山口県山口市平井1665,34.1428434,131.4545766,"083-934-2965
(協働推進課)",35203,山口県,山口市,1,1,1,1,1,,,,1,303(1.65㎡あたり1人）,http://www.city.yamaguchi.lg.jp/soshiki/4/2836.html,
412,平川小学校体育館,ヒラカワショウガッコウタイイクカン,山口県山口市平井1675-2,34.14129573,131.4560835,"083-934-2860
(教育施設管理課)",35203,山口県,山口市,1,1,1,1,1,,,,1,318(1.65㎡あたり1人）,http://www.city.yamaguchi.lg.jp/soshiki/4/2836.html,
413,平川中学校体育館,ヒラカワチュウガッコウタイイクカン,山口県山口市黒川1231-1,34.13942763,131.4567553,"083-934-2860
(教育施設管理課)",35203,山口県,山口市,1,1,1,1,1,,,,1,296(1.65㎡あたり1人）,http://www.city.yamaguchi.lg.jp/soshiki/4/2836.html,
414,平川幼稚園,ヒラカワヨウチエン,山口県山口市黒川1210-1,34.14160614,131.456976,"083-934-2860
(教育施設管理課)",35203,山口県,山口市,1,1,1,1,1,,,,1,208(1.65㎡あたり1人）,http://www.city.yamaguchi.lg.jp/soshiki/4/2836.html,
415,山口大学体育館・武道館　　,ヤマグチダイガクタイイクカン・ブドウカン　　　,山口県山口市吉田1677-1,34.14814295,131.4661283,"083-934-2860
(教育施設管理課)",35203,山口県,山口市,1,1,1,1,1,,,,1,1842(1.65㎡あたり1人）,http://www.city.yamaguchi.lg.jp/soshiki/4/2836.html,
416,山口県立西京高等学校体育館,ヤマグチケンリツサイキョウコウトウガッコウタイイクカン,山口県山口市黒川2580-1,34.13591454,131.444677,"083-923-8508
(西京高校)",35203,山口県,山口市,1,1,1,1,1,,,,1,808(1.65㎡あたり1人）,http://www.city.yamaguchi.lg.jp/soshiki/4/2836.html,
417,大歳地域交流センター,オオトシチイキコウリュウセンター,山口県山口市矢原1407-5,34.14900389,131.4400312,"083-934-2965
(協働推進課)",35203,山口県,山口市,1,1,1,1,1,,,,1,239(1.65㎡あたり1人）,http://www.city.yamaguchi.lg.jp/soshiki/4/2836.html,
418,大歳小学校体育館,オオトシショウガッコウタイイクカン,山口県山口市矢原1486,34.15067637,131.4395951,"083-934-2860
(教育施設管理課)",35203,山口県,山口市,1,1,1,1,1,,,,1,220(1.65㎡あたり1人）,http://www.city.yamaguchi.lg.jp/soshiki/4/2836.html,
419,大歳小学校校舎,オオトシショウガッコウコウシャ,山口県山口市矢原1486,34.15035895,131.4397087,"083-934-2860
(教育施設管理課)",35203,山口県,山口市,1,1,1,1,1,,,,1,783(1.65㎡あたり1人）,http://www.city.yamaguchi.lg.jp/soshiki/4/2836.html,
420,陶地域交流センター,スエチイキコウリュウセンター,山口県山口市陶2595,34.08952664,131.4304788,"083-934-2965
(協働推進課)",35203,山口県,山口市,1,1,1,1,1,,,,1,423(1.65㎡あたり1人）,http://www.city.yamaguchi.lg.jp/soshiki/4/2836.html,
421,陶小学校体育館,スエショウガッコウタイイクカン,山口県山口市陶3544,34.09054201,131.4296826,"083-934-2860
(教育施設管理課)",35203,山口県,山口市,1,1,1,1,1,,,,1,277(1.65㎡あたり1人）,http://www.city.yamaguchi.lg.jp/soshiki/4/2836.html,
422,陶小学校校舎,スエショウガッコウコウシャ,山口県山口市陶3544,34.09030655,131.4296826,"083-934-2860
(教育施設管理課)",35203,山口県,山口市,1,1,1,1,1,,,,1,441(1.65㎡あたり1人）,http://www.city.yamaguchi.lg.jp/soshiki/4/2836.html,
423,潟上中学校体育館,カタガミチュウガッコウタイイクカン,山口県山口市陶1912,34.0790913,131.4328548,"083-934-2860
(教育施設管理課)",35203,山口県,山口市,1,1,,1,1,,,,1,368(1.65㎡あたり1人）,http://www.city.yamaguchi.lg.jp/soshiki/4/2836.html,
424,陶隣保館,スエリンポカン,山口県山口市陶4713-1,34.09705824,131.4122845,"083-934-2767
(人権推進課)",35203,山口県,山口市,1,,1,,1,,,,1,233(1.65㎡あたり1人）,http://www.city.yamaguchi.lg.jp/soshiki/4/2836.html,
425,鋳銭司地域交流センター,スゼンジチイキコウリュウセンター,山口県山口市鋳銭司5435-1,34.08059029,131.4481027,"083-934-2965
(協働推進課)",35203,山口県,山口市,1,1,1,,1,,,,1,176(1.65㎡あたり1人）,http://www.city.yamaguchi.lg.jp/soshiki/4/2836.html,
426,鋳銭司小学校体育館,スゼンジショウガッコウタイイクカン,山口県山口市鋳銭司4010,34.08593979,131.4543877,"083-934-2860
(教育施設管理課)",35203,山口県,山口市,1,1,1,1,1,,,,1,169(1.65㎡あたり1人）,http://www.city.yamaguchi.lg.jp/soshiki/4/2836.html,
427,名田島地域交流センター,ナタジマチイキコウリュウセンター,山口県山口市名田島1218-1,34.08422259,131.4121165,"083-934-2965
(協働推進課)",35203,山口県,山口市,1,1,,1,1,,,,1,325(1.65㎡あたり1人）,http://www.city.yamaguchi.lg.jp/soshiki/4/2836.html,
428,名田島小学校体育館,ナタジマショウガッコウタイイクカン,山口県山口市名田島1538-2,34.07664062,131.4154542,"083-934-2860
(教育施設管理課)",35203,山口県,山口市,,1,,1,,,,,1,169(1.65㎡あたり1人）,http://www.city.yamaguchi.lg.jp/soshiki/4/2836.html,
429,名田島幼稚園,ナタジマヨウチエン,山口県山口市名田島1536-1,34.07634,131.415884,"083-934-2860
(教育施設管理課)",35203,山口県,山口市,,1,,1,,,,,1,98(1.65㎡あたり1人）,http://www.city.yamaguchi.lg.jp/soshiki/4/2836.html,
430,山口南総合センター,ヤマグチミナミソウゴウセンター,山口県山口市名田島1218-1,34.08445803,131.4121576,"083-934-2873
(スポーツ交流課)",35203,山口県,山口市,1,1,,1,1,,,,1,2450(1.65㎡あたり1人）,http://www.city.yamaguchi.lg.jp/soshiki/4/2836.html,
431,二島地域交流センター,フタジマチイキコウリュウセンター,山口県山口市秋穂二島5990,34.03752377,131.4229383,"083-934-2965
(協働推進課)",35203,山口県,山口市,1,1,1,,1,,,,1,180(1.65㎡あたり1人）,http://www.city.yamaguchi.lg.jp/soshiki/4/2836.html,
432,二島小学校体育館,フタジマショウガッコウタイイクカン,山口県山口市秋穂二島552-1,34.0380035,131.4207395,"083-934-2860
(教育施設管理課)",35203,山口県,山口市,1,1,1,1,1,,,,1,206(1.65㎡あたり1人）,http://www.city.yamaguchi.lg.jp/soshiki/4/2836.html,
433,二島中学校体育館,フタジマチュウガッコウタイイクカン,山口県山口市秋穂二島561,34.04117054,131.4250849,"083-934-2860
(教育施設管理課)",35203,山口県,山口市,1,1,1,1,1,,,,1,231(1.65㎡あたり1人）,http://www.city.yamaguchi.lg.jp/soshiki/4/2836.html,
434,二島幼稚園,フタジマヨウチエン,山口県山口市秋穂二島6174,34.03782909,131.4214429,"083-934-2860
(教育施設管理課)",35203,山口県,山口市,1,1,1,1,1,,,,1,98(1.65㎡あたり1人）,http://www.city.yamaguchi.lg.jp/soshiki/4/2836.html,
435,潮寿荘,チョウジュソウ,山口県山口市秋穂二島438-1,34.011125,131.408402,"083-934-2793
(高齢福祉課)",35203,山口県,山口市,1,1,1,1,1,,,,1,273(1.65㎡あたり1人）,http://www.city.yamaguchi.lg.jp/soshiki/4/2836.html,
436,嘉川地域交流センター,カガワチイキコウリュウセンター,山口県山口市嘉川4651-1,34.06769101,131.3696488,"083-934-2965
(協働推進課)",35203,山口県,山口市,1,1,1,1,1,,,,1,538(1.65㎡あたり1人）,http://www.city.yamaguchi.lg.jp/soshiki/4/2836.html,
437,嘉川小学校体育館,カガワショウガッコウタイイクカン,山口県山口市嘉川4986,34.07579076,131.3754567,"083-934-2860
(教育施設管理課)",35203,山口県,山口市,1,1,1,1,1,,,,1,255(1.65㎡あたり1人）,http://www.city.yamaguchi.lg.jp/soshiki/4/2836.html,
438,興進小学校体育館,コウシンショウガッコウタイイクカン,山口県山口市江崎2284,34.05784158,131.3698901,"083-934-2860
(教育施設管理課)",35203,山口県,山口市,1,1,1,1,1,,,,1,255(1.65㎡あたり1人）,http://www.city.yamaguchi.lg.jp/soshiki/4/2836.html,
439,川西中学校体育館,カワニシチュウガッコウタイイクカン,山口県山口市嘉川4352-2,34.06816139,131.3675807,"083-934-2860
(教育施設管理課)",35203,山口県,山口市,1,1,1,1,1,,,,1,200(1.65㎡あたり1人）,http://www.city.yamaguchi.lg.jp/soshiki/4/2836.html,
440,嘉泉荘,カセンソウ,山口県山口市嘉川1439-1,34.07768603,131.3771333,"083-934-2793
(高齢福祉課)",35203,山口県,山口市,1,1,1,,1,,,,1,89(1.65㎡あたり1人）,http://www.city.yamaguchi.lg.jp/soshiki/4/2836.html,
441,ハートホーム南山口（青藍会）　　　　　　地域交流スペース,ハートホームミナミヤマグチ（セイランカイ）チイキコウリュウスペース,山口県山口市深溝803-1,34.05148387,131.3672046,"083-988-3300
(ハートホーム南山口)",35203,山口県,山口市,1,1,1,1,1,,,,1,189(1.65㎡あたり1人）,http://www.city.yamaguchi.lg.jp/soshiki/4/2836.html,
442,佐山地域交流センター,サヤマチイキコウリュウセンター,山口県山口市佐山2726-1,34.03646712,131.3593507,"083-934-2965
(協働推進課)",35203,山口県,山口市,1,1,1,,1,,,,1,162(1.65㎡あたり1人）,http://www.city.yamaguchi.lg.jp/soshiki/4/2836.html,
443,佐山小学校体育館,サヤマショウガッコウタイイクカン,山口県山口市佐山2731,34.03603917,131.3605407,"083-934-2860
(教育施設管理課)",35203,山口県,山口市,1,1,1,1,1,,,,1,167(1.65㎡あたり1人）,http://www.city.yamaguchi.lg.jp/soshiki/4/2836.html,
444,小郡ふれあいセンター,オゴオリフレアイセンター,山口県山口市小郡下郷1440-1,34.10204596,131.401537,"083-934-2873
(スポーツ交流課)",35203,山口県,山口市,,1,1,1,1,,,,1,1281(1.65㎡あたり1人）,http://www.city.yamaguchi.lg.jp/soshiki/4/2836.html,
445,小郡保健福祉センター,オゴオリホケンフクシセンター,山口県山口市小郡下郷609-5,34.10211022,131.3932391,"083-973-8143
(健康増進課)",35203,山口県,山口市,1,,1,1,1,,,,1,634(1.65㎡あたり1人）,http://www.city.yamaguchi.lg.jp/soshiki/4/2836.html,
446,上郷小学校体育館,カミゴウショウガッコウタイイクカン,山口県山口市小郡みらい町2-14-1,34.12144824,131.3990214,"083-934-2860
(教育施設管理課)",35203,山口県,山口市,1,,1,1,1,,,,1,376(1.65㎡あたり1人）,http://www.city.yamaguchi.lg.jp/soshiki/4/2836.html,
447,上郷小学校校舎,カミゴウショウガッコウコウシャ,山口県山口市小郡みらい町2-14-1,34.12157702,131.3980719,083-934-2860　　　　　　　　　　　教育施設管理課,35203,山口県,山口市,1,1,1,1,1,,,,1,1420(1.65㎡あたり1人）,http://www.city.yamaguchi.lg.jp/soshiki/4/2836.html,
448,小郡小学校体育館,オゴオリショウガッコウタイイクカン,山口県山口市小郡下郷254-3,34.10648428,131.4007579,083-934-2860　　　　　　　　　　　教育施設管理課,35203,山口県,山口市,,1,1,1,1,,,,1,516(1.65㎡あたり1人）,http://www.city.yamaguchi.lg.jp/soshiki/4/2836.html,
449,小郡小学校校舎,オゴオリショウガッコウコウシャ,山口県山口市小郡下郷254-3,34.10644653,131.4001034,083-934-2860　　　　　　　　　　　教育施設管理課,35203,山口県,山口市,,1,1,1,1,,,,1,2007(1.65㎡あたり1人）,http://www.city.yamaguchi.lg.jp/soshiki/4/2836.html,
450,小郡南小学校体育館,オゴオリミナミショウガッコウタイイクカン,山口県山口市小郡緑町1-1,34.09013357,131.400267,083-934-2860　　　　　　　　　　　教育施設管理課,35203,山口県,山口市,,1,1,1,1,,,,1,442(1.65㎡あたり1人）,http://www.city.yamaguchi.lg.jp/soshiki/4/2836.html,
451,小郡南小学校校舎,オゴオリミナミショウガッコウコウシャ,山口県山口市小郡緑町1-1,34.09056006,131.4000042,083-934-2860　　　　　　　　　　　教育施設管理課,35203,山口県,山口市,,1,1,1,1,,,,1,1535(1.65㎡あたり1人）,http://www.city.yamaguchi.lg.jp/soshiki/4/2836.html,
452,小郡中学校体育館,オゴオリチュウガッコウタイイクカン,山口県山口市小郡下郷879-1,34.10638556,131.3970123,083-934-2860　　　　　　　　　　　教育施設管理課,35203,山口県,山口市,,1,1,1,1,,,,1,590(1.65㎡あたり1人）,http://www.city.yamaguchi.lg.jp/soshiki/4/2836.html,
453,小郡中学校校舎,オゴオリチュウガッコウコウシャ,山口県山口市小郡下郷879-1,34.10605983,131.3978062,083-934-2860　　　　　　　　　　　教育施設管理課,35203,山口県,山口市,,1,1,1,1,,,,1,2361(1.65㎡あたり1人）,http://www.city.yamaguchi.lg.jp/soshiki/4/2836.html,
454,小郡南集会所,オゴオリミナミシュウカイショ,山口県山口市小郡緑町2-27,34.09196178,131.4027896,083-973-2475　　　　　　　　　　　　　　　小郡総合支所総務課,35203,山口県,山口市,,1,1,,1,,,,1,89(1.65㎡あたり1人）,http://www.city.yamaguchi.lg.jp/soshiki/4/2836.html,
455,小郡上郷児童館,オゴオリカミゴウジドウカン,山口県山口市小郡上郷2159,34.12823793,131.4108934,083-934-2798　　　　　　　　　　　こども家庭課,35203,山口県,山口市,1,1,1,,1,,,,1,84(1.65㎡あたり1人）,http://www.city.yamaguchi.lg.jp/soshiki/4/2836.html,
456,小郡上郷保育園,オゴオリカミゴウホイクエン,山口県山口市小郡新町1-18-27,34.1134642,131.3975194,083-934-2798　　　　　　　　　　　こども家庭課,35203,山口県,山口市,,1,1,,1,,,,1,189(1.65㎡あたり1人）,http://www.city.yamaguchi.lg.jp/soshiki/4/2836.html,
457,山口県立山口農業高等学校体育館・武道場,ヤマグチケンリツヤマグチノウギョウコウトウガッコウタイイクカン・ブドウジョウ,山口県山口市小郡上郷980-1,34.13111682,131.4086051,083-972-0950　　　　　　　　　　　農業高校,35203,山口県,山口市,1,1,1,1,1,,,,1,610(1.65㎡あたり1人）,http://www.city.yamaguchi.lg.jp/soshiki/4/2836.html,
458,山口学芸大学体育館,ヤマグチガクゲイダイガクタイイクカン,山口県山口市小郡みらい町1-7-1,34.12119347,131.4022686,083-972-3288　　　　　　　　　　　　　学芸大学,35203,山口県,山口市,1,,1,1,1,,,,1,700(1.65㎡あたり1人）,http://www.city.yamaguchi.lg.jp/soshiki/4/2836.html,
459,山口県鴻城高等学校体育館,ヤマグチケンコウジョウコウトウガッコウタイイクカン,山口県山口市小郡下郷258-2,34.10896232,131.401172,083-972－0307　　　　　　　　　　鴻城高校,35203,山口県,山口市,,1,1,1,1,,,,1,925(1.65㎡あたり1人）,http://www.city.yamaguchi.lg.jp/soshiki/4/2836.html,
460,秋穂地域交流センター,アイオチイキコウリュウセンター,山口県山口市秋穂東6823-1,34.01914775,131.4332391,083-934-2965 　　　　　　　　　　　　　 協働推進課,35203,山口県,山口市,1,1,,1,1,,,,1,775(1.65㎡あたり1人）,http://www.city.yamaguchi.lg.jp/soshiki/4/2836.html,
461,秋穂保健センター,アイオホケンセンター,山口県山口市秋穂東6570,34.01497198,131.4375471,083-973-8147　　　　　　　　　　　　健康増進課,35203,山口県,山口市,1,1,1,1,1,,,,1,248(1.65㎡あたり1人）,http://www.city.yamaguchi.lg.jp/soshiki/4/2836.html,
462,大海総合センター,オオミソウゴウセンター,山口県山口市秋穂東1130-5,34.02982874,131.4650186,083-934-2873                  スポーツ交流課,35203,山口県,山口市,1,1,,1,1,,,,1,589(1.65㎡あたり1人）,http://www.city.yamaguchi.lg.jp/soshiki/4/2836.html,
463,大海小学校体育館,オオミショウガッコウタイイクカン,山口県山口市秋穂東2299,34.02190927,131.4632263,083-934-2860　　　　　　　　　　　教育施設管理課,35203,山口県,山口市,1,1,,1,1,,,,1,343(1.65㎡あたり1人）,http://www.city.yamaguchi.lg.jp/soshiki/4/2836.html,
464,秋穂小学校体育館,アイオショウガッコウタイイクカン,山口県山口市秋穂東6771,34.01748825,131.4358639,083-934-2860　　　　　　　　　　　教育施設管理課,35203,山口県,山口市,1,1,,1,1,,,,1,463(1.65㎡あたり1人）,http://www.city.yamaguchi.lg.jp/soshiki/4/2836.html,
465,秋穂中学校体育館,アイオチュウガッコウタイイクカン,山口県山口市秋穂東615-1,34.01465667,131.4404046,083-934-2860　　　　　　　　　　　教育施設管理課,35203,山口県,山口市,1,1,1,1,1,,,,1,469(1.65㎡あたり1人）,http://www.city.yamaguchi.lg.jp/soshiki/4/2836.html,
466,秋穂デイサービスセンター,アイオデイサービスセンター,山口県山口市秋穂東3993,34.01480475,131.4441315,083-934-2793　　　　　　　　　　　　　　高齢福祉課,35203,山口県,山口市,1,1,1,1,1,,,,1,137(1.65㎡あたり1人）,http://www.city.yamaguchi.lg.jp/soshiki/4/2836.html,
467,秋穂コミュニティ消防センター,アイオコミュニティショウボウセンター,山口県山口市秋穂東6031-1,34.01126795,131.4301689,083-984-2815,35203,山口県,山口市,1,1,,1,1,,,,1,155(1.65㎡あたり1人）,http://www.city.yamaguchi.lg.jp/soshiki/4/2836.html,
468,秋穂コミュニティセンター,アイオコミュニティセンター,山口県山口市秋穂東6527-2,34.01309223,131.4379464,083-934-2798　　　　　　　　　　　こども家庭課,35203,山口県,山口市,1,,1,,1,,,,1,210(1.65㎡あたり1人）,http://www.city.yamaguchi.lg.jp/soshiki/4/2836.html,
469,秋穂荘,アイオソウ,山口県山口市秋穂東768-13,33.99341052,131.4358496,083-934-2810　　　　　　　　　　　　　観光交流課,35203,山口県,山口市,1,1,1,,1,,,,1,1209(1.65㎡あたり1人）,http://www.city.yamaguchi.lg.jp/soshiki/4/2836.html,
470,阿知須地域交流センター,アジスチイキコウリュウセンター,山口県山口市阿知須2743,34.01307539,131.359098,0836-65-2022 　　　　　　　　　　　　　 阿知須地域交流センター,35203,山口県,山口市,1,1,1,,1,,,,1,360(1.65㎡あたり1人）,http://www.city.yamaguchi.lg.jp/soshiki/4/2836.html,
471,阿知須体育センター体育館,アジスタイイクセンタータイイクカン,山口県山口市阿知須2751,34.01306957,131.3599536,083-934-2873                  スポーツ交流課,35203,山口県,山口市,1,1,1,1,1,,,,1,339(1.65㎡あたり1人）,http://www.city.yamaguchi.lg.jp/soshiki/4/2836.html,
472,阿知須健康福祉センター,アジスケンコウフクシセンター,山口県山口市阿知須2740,34.013627,131.359543,083-934-2790　　　　　　　　　　　　　　社会課,35203,山口県,山口市,1,1,,1,1,,,,1,156(1.65㎡あたり1人）,http://www.city.yamaguchi.lg.jp/soshiki/4/2836.html,
473,阿知須小学校体育館,アジスショウガッコウタイイクカン,山口県山口市阿知須4251,34.01162499,131.3588231,083-934-2860　　　　　　　　　　　教育施設管理課,35203,山口県,山口市,1,1,1,1,1,,,,1,472(1.65㎡あたり1人）,http://www.city.yamaguchi.lg.jp/soshiki/4/2836.html,
474,井関小学校体育館,イセキショウガッコウタイイクカン,山口県山口市阿知須1639,34.01423737,131.3413775,083-934-2860　　　　　　　　　　　教育施設管理課,35203,山口県,山口市,1,1,1,1,1,,,,1,409(1.65㎡あたり1人）,http://www.city.yamaguchi.lg.jp/soshiki/4/2836.html,
475,井関小学校増築棟,イセキショウガッコウゾウチクトウ,山口県山口市阿知須1639,34.01423588,131.3400471,083-934-2860　　　　　　　　　　　教育施設管理課,35203,山口県,山口市,1,1,1,1,1,,,,1,283(1.65㎡あたり1人）,http://www.city.yamaguchi.lg.jp/soshiki/4/2836.html,
476,阿知須中学校体育館,アジスチュウガッコウタイイクカン,山口県山口市阿知須5094-3,34.01348824,131.3531213,083-934-2860　　　　　　　　　　　教育施設管理課,35203,山口県,山口市,1,1,1,1,1,,,,1,505(1.65㎡あたり1人）,http://www.city.yamaguchi.lg.jp/soshiki/4/2836.html,
477,阿知須中学校校舎,アジスチュウガッコウコウシャ,山口県山口市阿知須5094-3,34.01339042,131.3538133,083-934-2860　　　　　　　　　　　教育施設管理課,35203,山口県,山口市,1,1,1,1,1,,,,1,255(1.65㎡あたり1人）,http://www.city.yamaguchi.lg.jp/soshiki/4/2836.html,
478,フィッカルあじす,フィッカルアジス,山口県山口市阿知須4836-7,34.01061001,131.354245,0836-65-4858　　　　　　　　　　　　　　　　阿知須まちづくり財団,35203,山口県,山口市,1,1,1,1,1,,,,1,127(1.65㎡あたり1人）,http://www.city.yamaguchi.lg.jp/soshiki/4/2836.html,
479,"徳地山村開発センター
（徳地地域交流センター）","トクヂサンソンカイハツセンター
（トクジチイキコウリュウセンター）",山口県山口市徳地堀1533,34.18952864,131.6609602,083-934-2965　　　　　　　　　　　　農林政策課,35203,山口県,山口市,1,,1,,1,,,,1,635(1.65㎡あたり1人）,http://www.city.yamaguchi.lg.jp/soshiki/4/2836.html,
480,徳地体育館,トクヂタイイクカン,山口県山口市徳地堀1537,34.18908603,131.6614155,083-934-2873                  スポーツ交流課,35203,山口県,山口市,1,,1,1,1,,,,1,750(1.65㎡あたり1人）,http://www.city.yamaguchi.lg.jp/soshiki/4/2836.html,
481,徳地文化ホール,トクヂブンカホール,山口県山口市徳地堀1527－3,34.190337,131.660199,083-934-2873                  スポーツ交流課,35203,山口県,山口市,1,1,1,1,1,,,,1,952(1.65㎡あたり1人）,http://www.city.yamaguchi.lg.jp/soshiki/4/2836.html,
482,中央小学校体育館,チュウオウショウガッコウタイイクカン,山口県山口市徳地堀1551,34.1904596,131.6611912,083-934-2860　　　　　　　　　　　教育施設管理課,35203,山口県,山口市,1,,1,1,1,,,,1,184(1.65㎡あたり1人）,http://www.city.yamaguchi.lg.jp/soshiki/4/2836.html,
483,中央小学校校舎,チュウオウショウガッコウコウシャ,山口県山口市徳地堀1551,34.19006024,131.6617115,083-934-2860　　　　　　　　　　　教育施設管理課,35203,山口県,山口市,1,,1,1,1,,,,1,746(1.65㎡あたり1人）,http://www.city.yamaguchi.lg.jp/soshiki/4/2836.html,
484,徳地中学校体育館,トクヂチュウガッコウタイイクカン,山口県山口市徳地堀1606-1,34.19126639,131.6585271,083-934-2860　　　　　　　　　　　教育施設管理課,35203,山口県,山口市,1,1,1,1,1,,,,1,341(1.65㎡あたり1人）,http://www.city.yamaguchi.lg.jp/soshiki/4/2836.html,
485,徳地中学校校舎,トクヂチュウガッコウコウシャ,山口県山口市徳地堀1606-1,34.19131077,131.6589884,083-934-2860　　　　　　　　　　　教育施設管理課,35203,山口県,山口市,1,1,1,1,1,,,,1,745(1.65㎡あたり1人）,http://www.city.yamaguchi.lg.jp/soshiki/4/2836.html,
486,小古祖多目的集会所,オゴソタモクテキシュウカイショ,山口県山口市徳地小古祖831,34.20363927,131.668973,0835-21-1118　　　　　　　　　　　徳地総合支所総務課,35203,山口県,山口市,1,,1,,1,,,,1,89(1.65㎡あたり1人）,http://www.city.yamaguchi.lg.jp/soshiki/4/2836.html,
487,徳地地域交流センター八坂分館,トクヂチイキコウリュウセンターヤサカブンカン,山口県山口市徳地八坂975,34.23208675,131.6629366,0835-52-0217                           徳地地域交流センター,35203,山口県,山口市,1,1,1,1,1,,,,1,209(1.65㎡あたり1人）,http://www.city.yamaguchi.lg.jp/soshiki/4/2836.html,
488,八坂小学校体育館,ヤサカショウガッコウタイイクカン,山口県山口市徳地八坂1226,34.23818216,131.65808,083-934-2860　　　　　　　　　　　教育施設管理課,35203,山口県,山口市,1,,1,1,1,,,,1,159(1.65㎡あたり1人）,http://www.city.yamaguchi.lg.jp/soshiki/4/2836.html,
489,八坂小学校校舎,ヤサカショウガッコウコウシャ,山口県山口市徳地八坂1226,34.23800477,131.6577957,083-934-2860　　　　　　　　　　　教育施設管理課,35203,山口県,山口市,1,,1,1,1,,,,1,183(1.65㎡あたり1人）,http://www.city.yamaguchi.lg.jp/soshiki/4/2836.html,
490,やまぐちサッカー交流広場体育館,ヤマグチサッカーコウリュウヒロバタイイクカン,山口県山口市徳地船路890,34.2376307,131.6542463,083-934-2873                  スポーツ交流課,35203,山口県,山口市,,1,1,1,1,,,,1,278(1.65㎡あたり1人）,http://www.city.yamaguchi.lg.jp/soshiki/4/2836.html,
491,やまぐちサッカー交流広場クラブハウス,ヤマグチサッカーコウリュウヒロバクラブハウス,山口県山口市徳地船路890,34.23729658,131.6541318,083-934-2873                  スポーツ交流課,35203,山口県,山口市,,1,1,1,1,,,,1,283(1.65㎡あたり1人）,http://www.city.yamaguchi.lg.jp/soshiki/4/2836.html,
492,やまぐちサッカー交流広場（引谷体育館）,"ヤマグチサッカーコウリュウヒロバ
（ヒクタニタイイクカン）",山口県山口市徳地引谷1209-3,34.21714241,131.6105884,083-934-2873                  スポーツ交流課,35203,山口県,山口市,1,,1,1,1,,,,1,215(1.65㎡あたり1人）,http://www.city.yamaguchi.lg.jp/soshiki/4/2836.html,
493,三谷交流センター,ミタニコウリュウセンター,山口県山口市徳地三谷1461,34.24634857,131.7135115,083-934-2965　　　　　　　　　　　　農林政策課,35203,山口県,山口市,1,,1,1,1,,,,1,89(1.65㎡あたり1人）,http://www.city.yamaguchi.lg.jp/soshiki/4/2836.html,
494,徳地地域交流センター島地分館,トクヂチイキコウリュウセンターシマジブンカン,山口県山口市徳地島地96-2,34.160823,131.702288,0835-52-0217　　　　　　　　　　　　　徳地地域交流センター,35203,山口県,山口市,,1,1,1,1,,,,1,209(1.65㎡あたり1人）,http://www.city.yamaguchi.lg.jp/soshiki/4/2836.html,
