都道府県コード又は市区町村コード,NO,都道府県名,市区町村名,名称,名称_カナ,医療機関の種類,住所,方書,緯度,経度,電話番号,内線番号,FAX番号,法人番号,法人の名称,医療機関コード,診療曜日,診療開始時間,診療終了時間,診療日時特記事項,時間外における対応,診療科目,病床数,URL,備考
350001,,山口県,,国立病院機構　岩国医療センター,コクリツビョウインキコウ　イワクニイリョウセンター,病院,岩国市愛宕町1−1−1,,34.143982,132.203644,0827-34-1000,,,,,,,,,,,リハビリテーション科;外科;肝臓内科;眼科;救急科;胸部外科;形成外科;血液内科;呼吸器内科;産科;耳鼻いんこう科;循環器内科;小児科;小児外科;小児循環器科;消化器外科;消化器内科;心臓血管外科;神経内科;腎臓内科;整形外科;精神科;糖尿病・内分泌内科;内科;乳腺外科;脳神経外科;泌尿器科;皮膚科;病理診断科;婦人科;放射線科;麻酔科,530,,
350001,,山口県,,岩国病院,イワクニビョウイン,病院,岩国市岩国３−２−７,,34.163551,132.184036,0827-41-0850,,,,,,,,,,,産婦人科;小児科;消化器内科;神経内科;整形外科;内科,60,,
350001,,山口県,,錦病院,ニシキビョウイン,病院,岩国市錦見７−１５−７,,34.15992,132.186996,0827-41-0177,,,,,,,,,,,外科;消化器外科（胃腸外科）;整形外科;内科;乳腺外科;肛門外科,40,,
350001,,山口県,,岩国第一病院,イワクニダイイチビョウイン,病院,岩国市岩国１−２０−４９,,34.166977,132.180603,0827-41-0019,,,,,,,,,,,リハビリテーション科;漢方内科;呼吸器科;心療内科;内科;皮膚科,47,,
350001,,山口県,,岩国中央病院,イワクニチュウオウビョウイン,病院,岩国市今津町４−１５−３,,34.163998,132.21434,0827-23-1600,,,,,,,,,,,血管外科;呼吸器内科;腫瘍外科;消化器外科;消化器内科;腎臓内科;整形外科;糖尿病内科;透析内科;内視鏡外科;乳腺外科;放射線診断科;麻酔科;臨床検査科;肛門外科,22,,
350001,,山口県,,千鳥ヶ丘病院,チドリガオカビョウイン,病院,岩国市由宇町千鳥ヶ丘１−１−１,,34.037174,132.213593,0827-63-0231,,,,,,,,,,,歯科;神経内科;精神科,270,,
350001,,山口県,,岩国市立錦中央病院,イワクニシリツニシキチュウオウビョウイン,病院,岩国市錦町広瀬１０７２−１,,34.274345,131.921814,0827-72-2321,,,,,,,,,,,外科;眼科;耳鼻咽喉科;整形外科;内科;脳神経外科;泌尿器科;皮膚科,53,,
350001,,山口県,,岩国市立美和病院,イワクニシリツミワビョウイン,病院,岩国市美和町渋前１７７６,,34.218582,132.093811,0827-96-1155,,,,,,,,,,,外科;眼科;小児科;神経内科;整形外科;内科,60,,
350001,,山口県,,岩国みなみ病院,イワクニミナミビョウイン,病院,岩国市南岩国町２−７７−２３,,34.138248,132.19252,0827-32-4100,,,,,,,,,,,リハビリテーション科;外科;呼吸器外科;呼吸器内科;消化器外科（胃腸外科）;消化器内科（胃腸内科）,60,,
350001,,山口県,,みどり病院,ミドリビョウイン,病院,岩国市由宇町３５９−１,,34.035919,132.176926,0827-63-0111,,,,,,,,,,,リハビリテーション科;内科,120,,
350001,,山口県,,岩国市医療センター医師会病院,イワクニシイリョウセンターイシカイビョウイン,病院,岩国市室の木町３−６−１２,,34.170864,132.206497,0827-21-3211,,,,,,,,,,,外科;眼科;耳鼻咽喉科;整形外科;内科;脳神経外科;泌尿器科;皮膚科,181,,
350001,,山口県,,いしい記念病院,イシイキネンビョウイン,病院,岩国市多田３−１０２−１,,34.181664,132.166824,0827-41-0114,,,,,,,,,,,リハビリテーション科;呼吸器内科;循環器内科;消化器内科（胃腸内科）;精神科;内科;放射線科,207,,
350001,,山口県,,リフレまえだ病院,リフレマエダビョウイン,病院,岩国市玖珂町１８８７,,34.100464,132.092773,0827-82-3521,,,,,,,,,,,心療内科;精神科;内科,108,,
350001,,山口県,,玖珂中央病院,クガチュウオウビョウイン,病院,岩国市玖珂町１４４８,,34.100464,132.092773,0827-82-5123,,,,,,,,,,,リハビリテーション科;循環器科;消化器科;内科,148,,
350001,,山口県,,山口平成病院,ヤマグチヘイセイビョウイン,病院,岩国市玖珂町臼田１１３４０,,34.097664,132.05542,0827-82-6111,,,,,,,,,,,リウマチ科;リハビリテーション科;呼吸器内科;循環器内科;消化器内科（胃腸内科）;内科,150,,
350001,,山口県,,周防病院,スオウビョウイン,病院,岩国市周東町上久原１２３,,34.076614,132.071854,0827-84-1223,,,,,,,,,,,リハビリテーション科;呼吸器内科;循環器内科;消化器内科（胃腸内科）;神経内科;内科;放射線科,150,,
350001,,山口県,,藤政病院,フジマサビョウイン,病院,岩国市周東町下久原２４０３−１,,34.09428,132.049957,0827-84-0037,,,,,,,,,,,外科;矯正歯科;歯科;歯科口腔外科;小児歯科;整形外科;内科,40,,
350001,,山口県,,柳井病院,ヤナイビョウイン,病院,柳井市柳井１９１０−１,,33.993694,132.103455,0820-22-1002,,,,,,,,,,,小児神経発達外来;精神科;内科,298,,
350001,,山口県,,国立病院機構　柳井医療センター,コクリツビョウインキコウ　ヤナイイリョウセンター,病院,柳井市伊保庄９５,,33.915909,132.127487,0820-27-0211,,,,,,,,,,,外科;呼吸器内科;循環器科;整形外科;内科;脳神経内科;泌尿器科;皮膚科,280,,
350001,,山口県,,周東総合病院,シュウトウソウゴウビョウイン,病院,柳井市古開作１０００−１,,33.959858,132.095093,0820-22-3456,,,,,,,,,,,リハビリテーション科;外科;眼科;血液内科;産婦人科;歯科口腔外科;耳鼻いんこう科;循環器内科;小児科;消化器内科;心臓血管外科;整形外科;精神科;内科;乳腺外科;脳神経外科;脳神経内科;泌尿器科;皮膚科;放射線科;麻酔科,360,,
350001,,山口県,,坂本病院,サカモトビョウイン,病院,柳井市余田３６２６−２,,33.958447,132.067291,0820-23-6800,,,,,,,,,,,呼吸器内科;循環器内科;消化器内科（胃腸内科）;内科,100,,
350001,,山口県,,周防大島町立大島病院,スオウオオシマチョウリツ　オオシマビョウイン,病院,大島郡周防大島町大字小松１４１５−１,,33.941822,132.187759,0820-74-2580,,,,,,,,,,,リハビリテーション科;外科;眼科;耳鼻いんこう科;整形外科;内科;脳神経外科;発達小児科;泌尿器科;皮膚科,99,,
350001,,山口県,,周防大島町立東和病院,スオウオオシマチョウリツトウワビョウイン,病院,大島郡周防大島町大字西方５７１−１,,33.885509,132.357452,0820-78-0310,,,,,,,,,,,リハビリテーション科;外科;眼科;耳鼻いんこう科;循環器科;整形外科;内科;発達小児科;泌尿器科;皮膚科;病理診断科;放射線科,99,,
350001,,山口県,,日良居病院,ヒライビョウイン,病院,大島郡周防大島町大字土居１４２６−１,,33.913338,132.308136,0820-73-0527,,,,,,,,,,,歯科;精神科,132,,
350001,,山口県,,光輝病院,コウキビョウイン,病院,熊毛郡平生町大字佐賀１０００２−７７,,33.8988,132.092407,0820-58-1111,,,,,,,,,,,外科;眼科;歯科;耳鼻いんこう科;整形外科;精神科;内科;脳神経外科;泌尿器科;皮膚科,476,,
350001,,山口県,,泉原病院,イズミハラビョウイン,病院,周南市泉原町１０−１,,34.052765,131.820343,0834-21-4511,,,,,,,,,,,精神科,265,,
350001,,山口県,,徳山静養院,トクヤマセイヨウイン,病院,周南市五月町１３−１,,34.038719,131.829895,0834-31-1734,,,,,,,,,,,心療内科;精神科,140,,
350001,,山口県,,地域医療支援病院オープンシステム徳山医師会病院,チイキイリョウシエンビョウインオープンシステムトクヤマイシカイビョウイン,病院,周南市東山町６−２８,,34.049595,131.816147,0834-31-2350,,,,,,,,,,,リハビリテーション科;外科;呼吸器内科;循環器内科;消化器内科（胃腸内科）;神経内科;脳神経外科;泌尿器科,330,,
350001,,山口県,,周南病院,シュウナンビョウイン,病院,周南市御幸通２−８,,34.052513,131.805191,0834-21-0357,,,,,,,,,,,アレルギー科;リウマチ科;リハビリテーション科;外科;神経内科;内科;脳神経外科,56,,
350001,,山口県,,徳山病院,トクヤマビョウイン,病院,周南市南浦山町５番14号,,34.069366,131.788071,0834-21-3750,,,,,,,,,,,リウマチ科;リハビリテーション科;循環器内科;消化器内科（胃腸内科）;内科;放射線科,78,,
350001,,山口県,,鼓ケ浦こども医療福祉センター,ツヅミガウラコドモイリョウフクシセンター,病院,周南市大字久米字西殿山７５２−４,,34.051853,131.85611,0834-29-1430,,,,,,,,,,,リハビリテーション科;歯科;耳鼻いんこう科;小児科;小児神経科;小児脳神経外科;神経内科;整形外科,100,,
350001,,山口県,,田中病院,タナカビョウイン,病院,周南市三番町１−１２,,34.053665,131.810913,0834-32-2000,,,,,,,,,,,産婦人科,52,,
350001,,山口県,,湯野温泉病院,ユノオンセンビョウイン,病院,周南市大字湯野４２１７−２,,34.094009,131.676193,0834-83-2083,,,,,,,,,,,リハビリテーション科;内科,161,,
350001,,山口県,,徳山中央病院,トクヤマチュウオウビョウイン,病院,周南市孝田町１−１,,34.047676,131.83287,0834-28-4411,,,,,,,,,,,ペインクリニック内科;リウマチ科;リハビリテーション科;外科;緩和ケア内科;眼科;救急科;形成外科;血液内科;産婦人科;歯科;歯科口腔外科;耳鼻いんこう科;循環器内科;小児科;小児外科;消化器内科（胃腸内科）;心臓血管外科;神経内科;整形外科;精神科;糖尿病内科（代謝内科）;内科;乳腺外科;脳神経外科;泌尿器科;皮膚科;病理診断科;放射線科;麻酔科;臨床検査科,519,,
350001,,山口県,,黒川病院,クロカワビョウイン,病院,周南市五月町８−１９,,34.036823,131.829468,0834-32-2015,,,,,,,,,,,リハビリテーション科;外科;形成外科;整形外科;脳神経外科;放射線科;麻酔科,50,,
350001,,山口県,,周南市立新南陽市民病院,シュウナンシリツシンナンヨウシミンビョウイン,病院,周南市宮の前２−３−１５,,34.071999,131.765961,0834-61-2500,,,,,,,,,,,外科;眼科;整形外科;内科;脳神経外科;泌尿器科,150,,
350001,,山口県,,周南リハビリテーション病院,シュウナンリハビリテーションビョウイン,病院,周南市大字湯野字主地４２７８−１,,34.108093,131.6716,0834-83-3300,,,,,,,,,,,リハビリテーション科;内科,210,,
350001,,山口県,,鹿野博愛病院,カノハクアイビョウイン,病院,周南市大字鹿野下１１６１−１,,34.210499,131.825378,0834-68-2233,,,,,,,,,,,リハビリテーション科;胃腸科;外科;循環器内科;小児科;整形外科;内科,74,,
350001,,山口県,,周南高原病院,シュウナンコウゲンビョウイン,病院,周南市大字須々万本郷２９−１,,34.112503,131.864151,0834-88-0391,,,,,,,,,,,リハビリテーション科;循環器内科;消化器内科（胃腸内科）;整形外科;内科,115,,
350001,,山口県,,徳山リハビリテーション病院,トクヤマリハビリテーションビョウイン,病院,周南市大字徳山６２６,,34.073544,131.822449,0834-33-7770,,,,,,,,,,,リハビリテーション科;内科,120,,
350001,,山口県,,下松中央病院,クダマツチュウオウビョウイン,病院,下松市古川町３−１−１,,34.007442,131.872314,0833-41-3030,,,,,,,,,,,外科;歯科;整形外科;内科;婦人科,99,,
350001,,山口県,,下松病院,クダマツビョウイン,病院,下松市新川２−１−１,,34.009037,131.863144,0833-41-2727,,,,,,,,,,,リハビリテーション科;内科,51,,
350001,,山口県,,周南記念病院,シュウナンキネンビョウイン,病院,下松市生野屋南１−１０−１,,34.032719,131.876617,0833-45-3330,,,,,,,,,,,アレルギー科;リウマチ科;リハビリテーション科;外科;形成外科;血管外科;呼吸器外科;呼吸器内科;甲状腺外科;耳鼻いんこう科;循環器内科;小児科;消化器外科（胃腸外科）;消化器内科（胃腸内科）;神経内科;整形外科;大腸・肛門外科;内科;乳腺外科;脳神経外科;泌尿器科;放射線科;麻酔科,250,,
350001,,山口県,,光市立大和総合病院,ヒカリシリツ　ヤマトソウゴウビョウイン,病院,光市大字岩田９７４,,33.982883,131.999725,0820-48-2111,,,,,,,,,,,リハビリテーション科;外科;眼科;呼吸器内科;歯科;歯科口腔外科;耳鼻咽喉科;循環器内科;小児科;小児歯科;消化器内科;整形外科;内科;脳神経内科;婦人科;放射線科;麻酔科,243,,
350001,,山口県,,大田病院,オオタビョウイン,病院,光市島田５−３−１,,33.980576,131.940109,0833-77-0621,,,,,,,,,,,精神科、神経科,204,,
350001,,山口県,,光市立光総合病院,ヒカリシリツヒカリソウゴウビョウイン,病院,光市光ケ丘６−１,,33.982948,131.920441,0833-72-1000,,,,,,,,,,,,210,,
350001,,山口県,,梅田病院,ウメダビョウイン,病院,光市虹ケ浜３−６−１,,33.972855,131.916367,0833-71-0084,,,,,,,,,,,産婦人科;小児科;肛門科,34,,
350001,,山口県,,光中央病院,ヒカリチュウオウビョウイン,病院,光市島田２−２２−１６,,33.970184,131.933304,0833-72-0676,,,,,,,,,,,リハビリテーション科;外科;呼吸器内科;循環器内科;消化器内科（胃腸内科）;整形外科;内科;乳腺外科;脳神経外科;放射線科;麻酔科;肛門外科,98,,
350001,,山口県,,みちがみ病院,ミチガミビョウイン,病院,光市光ケ丘２−５,,33.979031,131.921997,0833-72-3332,,,,,,,,,,,産科・婦人科・漢方内科;小児科,30,,
350001,,山口県,,防府保養院,ホウフホヨウイン,病院,防府市岩畠１−２−１,,34.056507,131.592606,0835-38-0535,,,,,,,,,,,精神科,100,,
350001,,山口県,,三田尻病院,ミタジリビョウイン,病院,防府市お茶屋町３−２７,,34.046402,131.572708,0835-22-1110,,,,,,,,,,,アレルギー科;外科;眼科;血液内科;血管外科;呼吸器内科;歯科;歯科口腔外科;循環器内科;小児科;消化器内科;神経内科;人工透析内科;腎臓内科;整形外科;糖尿病内科;内科;乳腺外科;脳神経外科;泌尿器科;皮膚科;放射線科,128,,
350001,,山口県,,桑陽病院,ソウヨウビョウイン,病院,防府市車塚町３−２０,,34.05217,131.574509,0835-23-1781,,,,,,,,,,,リウマチ科;リハビリテーション科;循環器内科;消化器内科;整形外科;糖尿病・内分泌内科;内科;泌尿器科,99,,
350001,,山口県,,松本外科病院,マツモトゲカビョウイン,病院,防府市天神２−１−４４,,34.056862,131.573044,0835-22-1409,,,,,,,,,,,こう門科;リウマチ科;リハビリテーション科;胃腸科;外科;呼吸器科;整形外科;内科;脳神経外科;泌尿器科;皮膚科;放射線科;麻酔科,80,,
350001,,山口県,,防府リハビリテーション病院,ホウフリハビリテーションビョウイン,病院,防府市大字台道１６３４−１,,34.069256,131.492813,0835-32-1777,,,,,,,,,,,リハビリテーション科;眼科;歯科;整形外科;内科,311,,
350001,,山口県,,防府胃腸病院,ホウフイチョウビョウイン,病院,防府市駅南町１４−３３,,34.051064,131.563461,0835-22-3339,,,,,,,,,,,リハビリテーション科;外科;消化器外科（胃腸外科）;消化器内科（胃腸内科）;内科;放射線科;肛門外科,120,,
350001,,山口県,,山口県立総合医療センター,ヤマグチケンリツソウゴウイリョウセンター,病院,防府市大字大崎１００７７,,34.072056,131.543915,0835-22-4411,,,,,,,,,,,リハビリテーション科;外科;眼科;救急科;形成外科;血液内科;呼吸器外科;呼吸器内科;産婦人科;歯科;歯科口腔外科;耳鼻咽喉科;循環器内科;小児科;小児科（新生児）;小児外科;消化器外科;消化器内科;心臓血管外科;腎臓内科;整形外科;精神科;頭頸部外科;内科;内分泌内科;乳腺外科;脳神経外科;脳神経内科;泌尿器科;皮膚科;病理診断科;婦人科（生殖医療）;放射線科;麻酔科,504,,
350001,,山口県,,山口博愛病院,ヤマグチハクアイビョウイン,病院,防府市お茶屋町２−１２,,34.047657,131.572906,0835-22-2310,,,,,,,,,,,アレルギー科;外科;血液内科;呼吸器内科;循環器内科;消化器内科;神経内科;整形外科;糖尿病・代謝内科;内科;皮膚科;放射線科,98,,
350001,,山口県,,緑町三祐病院,ミドリマチサンユウビョウイン,病院,防府市緑町１−５−２９,,34.054127,131.5784,0835-22-3145,,,,,,,,,,,リハビリテーション科;外科;眼科;消化器内科（胃腸内科）;整形外科;内科;皮膚科,86,,
350001,,山口県,,防府病院,ホウフビョウイン,病院,防府市高井９６１,,34.078262,131.546921,0835-22-0759,,,,,,,,,,,歯科;神経科;精神科,160,,
350001,,山口県,,吉南病院,キツナン　ビョウイン,病院,山口市鋳銭司３３８１,,34.076084,131.461548,083-986-2111,,,,,,,,,,,歯科;精神科;内科,342,,
350001,,山口県,,山口よしき病院,ヤマグチヨシキビョウイン,病院,山口市吉敷佐畑４−９−１,,34.167549,131.426437,083-922-2350,,,,,,,,,,,心療内科;精神科;内科,197,,
350001,,山口県,,仁保病院,ニホビョウイン,病院,山口市仁保下郷１９１５−１,,34.190407,131.542496,083-941-5555,,,,,,,,,,,精神科,223,,
350001,,山口県,,山口赤十字病院,ヤマグチセキジュウジビョウイン,病院,山口市八幡馬場５３−１,,34.184959,131.482346,083-923-0111,,,,,,,,,,,外科;緩和ケア科;眼科;産婦人科;歯科口腔外科;耳鼻咽喉科;循環器内科;小児科;整形外科;精神科;内科;乳腺外科;脳神経外科;脳神経内科;泌尿器科;皮膚科;放射線科;麻酔科,427,,
350001,,山口県,,済生会山口総合病院,サイセイカイヤマグチソウゴウビョウイン,病院,山口市緑町２−１１,,34.171051,131.467438,083‐901-6111,,,,,,,,,,,外科;眼科;産婦人科;耳鼻いんこう科;小児科;整形外科;内科;脳神経外科;泌尿器科;皮膚科;放射線科,310,,
350001,,山口県,,山口病院,ヤマグチビョウイン,病院,山口市駅通り２−１０−７,,34.174904,131.47963,083-922-1191,,,,,,,,,,,リハビリテーション科;外科;呼吸器内科;循環器内科;消化器内科（胃腸内科）;整形外科;内科;泌尿器科;皮膚科;放射線科;肛門外科,79,,
350001,,山口県,,丘病院,オカビョウイン,病院,山口市中河原町２−１４,,34.178394,131.475296,083-925-1100,,,,,,,,,,,リウマチ科;リハビリテーション科;外科;整形外科;内科;皮膚科,37,,
350001,,山口県,,柴田病院,シバタビョウイン,病院,山口市大内矢田北５丁目１１番２１号,,34.155025,131.509354,083-927-2800,,,,,,,,,,,リハビリテーション科;外科;眼科;呼吸器内科;循環器内科;消化器外科（胃腸外科）;消化器内科（胃腸内科）;神経内科;腎臓内科;整形外科;内科;放射線科;麻酔科;肛門外科,60,,
350001,,山口県,,佐々木外科病院,ササキゲカビョウイン,病院,山口市泉都町９−１３,,34.16684,131.460785,083-923-8811,,,,,,,,,,,リウマチ科;リハビリテーション科;外科;消化器外科（胃腸外科）;消化器内科（胃腸内科）;整形外科;内科;乳腺外科;放射線科;麻酔科;肛門外科,54,,
350001,,山口県,,山口若宮病院,ヤマグチワカミヤビョウイン,病院,山口市下小鯖１５２２,,34.137592,131.517899,083-927-3661,,,,,,,,,,,リハビリテーション科;循環器内科;消化器内科（胃腸内科）;内科,173,,
350001,,山口県,,小郡第一総合病院,オゴオリダイイチソウゴウビョウイン,病院,山口市小郡下郷８６２−３,,34.103893,131.3974,083-972-0333,,,,,,,,,,,リハビリテーション科;外科;眼科;呼吸器内科;産婦人科;耳鼻咽喉科;循環器内科;小児科;消化器内科;整形外科;糖尿病・血液内科;内科;脳神経外科;脳神経内科;泌尿器科;麻酔科,182,,
350001,,山口県,,阿知須共立病院,アジスキョウリツビョウイン,病院,山口市阿知須４８４１−１,,34.016357,131.343506,0836-65-2200,,,,,,,,,,,リハビリテーション科;外科;血管外科;呼吸器外科;呼吸器内科;循環器内科;消化器外科（胃腸外科）;消化器内科（胃腸内科）;腎臓内科;整形外科;糖尿病内科（代謝内科）;内科;内視鏡内科;内分泌内科;乳腺外科;脳神経外科;放射線科,135,,
350001,,山口県,,阿知須同仁病院,アジスドウジンビョウイン,病院,山口市阿知須４２４１−４,,34.016357,131.343506,0836-65-5555,,,,,,,,,,,リハビリテーション科;外科;呼吸器外科;循環器内科;消化器内科（胃腸内科）;整形外科;内科;脳神経外科;放射線科;麻酔科,78,,
350001,,山口県,,山口リハビリテーション病院,ヤマグチリハビリテーションビョウイン,病院,山口市黒川３３８０,,34.131638,131.438644,083-921-1616,,,,,,,,,,,リハビリテーション科;歯科;循環器内科;小児科;神経内科;整形外科;内科,180,,
350001,,山口県,,小郡まきはら病院,オゴオリマキハラビョウイン,病院,山口市小郡若草町３−４,,34.086143,131.394119,083-973-0222,,,,,,,,,,,精神科,114,,
350001,,山口県,,林病院,ハヤシビョウイン,病院,山口市小郡下郷７５１−４,,34.101021,131.392609,083-972-0411,,,,,,,,,,,リハビリテーション科;外科;循環器科内科;消化器外科;消化器内科;神経内科;整形外科;内科;放射線科;肛門外科,50,,
350001,,山口県,,済生会湯田温泉病院,サイセイカイユダオンセンビョウイン,病院,山口市朝倉町４−５５,,34.175591,131.452347,083-932-3311,,,,,,,,,,,リハビリテーション科;外科;整形外科;内科;放射線科,142,,
350001,,山口県,,山口県立こころの医療センター,ヤマグチケンリツココロノイリョウセンター,病院,宇部市大字東岐波東小沢４００４−２,,33.980255,131.331787,0836-58-2370,,,,,,,,,,,精神科,180,,
350001,,山口県,,西宇部病院,ニシウベビョウイン,病院,宇部市大字際波２４８−１,,34.011539,131.216492,0836-41-8190,,,,,,,,,,,歯科;精神科;内科;皮膚科,218,,
350001,,山口県,,片倉病院,カタクラビョウイン,病院,宇部市大字西岐波２２９−３,,33.974148,131.28624,0836-51-6222,,,,,,,,,,,歯科;精神科・神経科,229,,
350001,,山口県,,国立病院機構　山口宇部医療センター,コクリツビョウインキコウ　ヤマグチウベイリョウセンター,病院,宇部市東岐波６８５,,33.977196,131.347488,0836-58-2300,,,,,,,,,,,リハビリテーション科;外科;緩和ケア内科;呼吸器外科;呼吸器内科;歯科;耳鼻いんこう科;腫瘍内科;循環器内科;小児科;消化器内科（内視鏡等）;神経内科;整形外科;精神科;内科;乳腺・消化器外科;病理診断科;放射線科;麻酔科;臨床検査科,365,,
350001,,山口県,,山口大学医学部附属病院,ヤマグチダイガクイガクブフゾクビョウイン,病院,宇部市南小串１−１−１,,33.959908,131.248962,0836-22-2111,,,,,,,,,,,アレルギー科;ペインクリニック;リウマチ科;一般内科;漢方外来;肝臓内科;肝胆膵・移植外科;眼科;形成外科;血液内科;呼吸器・感染症内科;呼吸器外科;産科婦人科;歯科口腔外科;耳鼻咽喉科;循環器外科;循環器内科;小児科;小児外外科;消化管外科;消化管内科;心臓血管外科;心療内科;腎臓・高血圧内科;整形外科;精神科神経科;胆道膵臓内科;糖尿病・内分泌内科;乳腺・内分泌腺外科;脳神経外科;脳神経内科;泌尿器科;皮膚科;放射線科;放射線治療科;麻酔科蘇生科;膠原病内科,756,,
350001,,山口県,,尾中病院,オナカビョウイン,病院,宇部市寿町一丁目３番２８号,,33.953377,131.248245,0836-31-2133,,,,,,,,,,,リハビリテーション科;外科;循環器内科;消化器内科（胃腸内科）;整形外科;内科;脳神経外科;皮膚科,180,,
350001,,山口県,,宇部記念病院,ウベキネンビョウイン,病院,宇部市上町１−４−１１,,33.958214,131.2397,0836-31-1146,,,,,,,,,,,リウマチ科;リハビリテーション科;外科;呼吸器内科;歯科;循環器内科;消化器外科;消化器内科;整形外科;内科;脳神経外科;脳神経内科;泌尿器科;皮膚科;放射線科;麻酔科,190,,
350001,,山口県,,宇部興産中央病院,ウベコウサン　チュウオウビョウイン,病院,宇部市大字西岐波７５０,,33.966419,131.330826,0836-51-9221,,,,,,,,,,,リハビリテーション科;外科;眼科;救急科;呼吸器内科;産婦人科;歯科;歯科口腔外科;耳鼻咽喉科;循環器内科;消化器内科;整形外科;糖尿病・血液内科;内科;脳神経外科;脳神経内科;泌尿器科;皮膚科;放射線科;麻酔科,384,,
350001,,山口県,,セントヒル病院,セントヒルビョウイン,病院,宇部市今村北３−７−１８,,33.963764,131.305069,0836-51-5111,,,,,,,,,,,アレルギー科;リハビリテーション科;外科;呼吸器内科;循環器内科;消化器外科（胃腸外科）;消化器内科（胃腸内科）;人工透析内科;腎臓内科;整形外科;内科;脳神経外科;泌尿器科;放射線診断科,184,,
350001,,山口県,,宇部リハビリテーション病院,ウベリハビリテーションビョウイン,病院,宇部市大字西岐波２２９−３,,33.974148,131.28624,0836-51-3111,,,,,,,,,,,リハビリテーション科;眼科;耳鼻いんこう科;小児科;神経内科;精神科;内科;皮膚科;放射線科,232,,
350001,,山口県,,宇部第一病院,ウベダイイチビョウイン,病院,宇部市木田中山田４０―２０,,34.064102,131.281021,0836-62-1001,,,,,,,,,,,リハビリテーション科;外科;歯科;神経内科;整形外科;精神科;内科;脳神経外科;放射線科,160,,
350001,,山口県,,サンポプラ病院,サンポプラビョウイン,病院,宇部市明治町１丁目７−７,,33.943913,131.251862,0836-21-2864,,,,,,,,,,,循環器内科;消化器内科;腎臓内科（人工透析）;内科,42,,
350001,,山口県,,シーサイド病院,シーサイドビョウイン,病院,宇部市大字東岐波字丸尾４３２２−１,,33.980255,131.331787,0836‐58‐5360,,,,,,,,,,,アレルギー科;リハビリテーション科;呼吸器内科;循環器内科;内科,155,,
350001,,山口県,,宇部協立病院,ウベキョウリツビョウイン,病院,宇部市五十目山町１６−２３,,33.937302,131.266754,0836-33-6111,,,,,,,,,,,リウマチ科;リハビリテーション科;外科;呼吸器内科;循環器内科;消化器内科（胃腸内科）;整形外科;精神科;糖尿病内科（代謝内科）;内科;放射線科;肛門外科,159,,
350001,,山口県,,高嶺病院,コウリョウビョウイン,病院,宇部市大字善和１８７−２,,34.002216,131.285355,0836-62-1100,,,,,,,,,,,歯科;精神科;内科,127,,
350001,,山口県,,厚南セントヒル病院,コウナンセントヒルビョウイン,病院,宇部市大字妻崎開作１０８,,33.978737,131.217499,0836-44-2111,,,,,,,,,,,循環器内科;消化器内科;内科;脳神経外科;泌尿器科;放射線科,80,,
350001,,山口県,,宇部仁心会病院,ウベジンシンカイビョウイン,病院,宇部市寿町３−２−２６,,33.951855,131.252853,0836-31-3337,,,,,,,,,,,循環器内科;腎臓内科;内科,47,,
350001,,山口県,,扶老会病院,フロウカイビョウイン,病院,宇部市船木８３３,,34.049004,131.193573,0836-67-1167,,,,,,,,,,,リハビリテーション科;神経内科;精神科;内科,274,,
350001,,山口県,,宇部西リハビリテーション病院,ウベニシリハビリテーションビョウイン,病院,宇部市大字沖ノ旦７９７,,33.995525,131.225998,0836-45-2111,,,,,,,,,,,リハビリテーション科;循環器内科;消化器内科（胃腸内科）;神経内科;内科;脳神経外科;放射線科,250,,
350001,,山口県,,小野田心和園,オノダシンワエン,病院,山陽小野田市丸河内９５９−２,,33.979961,131.188004,0836-83-3701,,,,,,,,,,,精神科,164,,
350001,,山口県,,山口労災病院,ヤマグチロウサイビョウイン,病院,山陽小野田市小野田１３１５−４,,33.986275,131.184525,0836-83-2881,,,,,,,,,,,リハビリテーション科;外科;眼科;救急科;産婦人科;歯科口腔外科;耳鼻いんこう科;循環器内科;小児科;消化器外科（胃腸外科）;消化器内科;整形外科;精神科;内科;脳神経外科;泌尿器科;皮膚科;放射線科;麻酔科,313,,
350001,,山口県,,山陽小野田市民病院,サンヨウオノダシミンビョウイン,病院,山陽小野田市東高泊１８６３−１,,33.997986,131.1745,0836-83-2355,,,,,,,,,,,外科;眼科;産婦人科;歯科口腔外科;耳鼻咽喉科;小児科;整形外科;精神科;内科;脳神経外科;脳神経内科;泌尿器科;皮膚科;放射線科;麻酔科,215,,
350001,,山口県,,小野田赤十字病院,オノダセキジュウジビョウイン,病院,山陽小野田市小野田３７００,,33.952679,131.182571,0836-88-0221,,,,,,,,,,,外科;眼科;神経科;整形外科;内科;脳神経内科;皮膚科,120,,
350001,,山口県,,長沢病院,ナガサワビョウイン,病院,山陽小野田市中央１−５−２６,,33.9762,131.177292,0836-83-3000,,,,,,,,,,,リハビリテーション科;胃腸内科;外科;内科,60,,
350001,,山口県,,森田病院,モリタビョウイン,病院,山陽小野田市赤崎２−１０−１,,33.962437,131.173874,0836-88-0137,,,,,,,,,,,リハビリテーション科;外科;小児科;整形外科;内科;放射線科;麻酔科,36,,
350001,,山口県,,美祢市立美東病院,ミネシリツミトウビョウイン,病院,美祢市美東町大田３８００,,34.232838,131.357422,08396-2-0515,,,,,,,,,,,リハビリテーション科;外科;眼科;耳鼻いんこう科;整形外科;内科;皮膚科;婦人科,100,,
350001,,山口県,,田代台病院,タシロダイビョウイン,病院,美祢市美東町真名２９４１,,34.158138,131.350876,08396-5-0301,,,,,,,,,,,神経内科;精神科;内科,302,,
350001,,山口県,,美祢市立病院,ミネシリツビョウイン,病院,美祢市大嶺町東分１１３１３−１,,34.181473,131.208405,0837-52-1700,,,,,,,,,,,外科;眼科;耳鼻咽喉科;小児科;整形外科;精神科;内科;脳神経外科;泌尿器科;皮膚科;放射線科;麻酔科,138,,
350001,,山口県,,下関病院,シモノセキビョウイン,病院,下関市冨任町６−１８−１８,,34.017822,130.922577,083-258-0338,,,,,,,,,,,心療内科;神経内科;精神科;内科,300,,
350001,,山口県,,長門一ノ宮病院,ナガトイチノミヤビョウイン,病院,下関市形山みどり町１７−３５,,34.01289,130.953766,083-256-2011,,,,,,,,,,,児童精神科;小児科;心療内科;精神科,189,,
350001,,山口県,,稗田病院,ヒエダビョウイン,病院,下関市稗田中町８−１８,,33.995308,130.927109,083-251-2121,,,,,,,,,,,精神科;内科,188,,
350001,,山口県,,光風園病院,コウフウエンビョウイン,病院,下関市長府才川２−２１−２,,34.024475,130.999954,083-248-0254,,,,,,,,,,,リハビリテーション科;内科;皮膚科,285,,
350001,,山口県,,国立病院機構　関門医療センター,コクリツビョウインキコウカンモンイリョウセンター,病院,下関市長府外浦町１−１,,33.9897,130.992935,083-241-1199,,,,,,,,,,,リウマチ科;リハビリテーション科;外科;肝臓内科;眼科;救急科;形成外科;呼吸器外科;呼吸器内科;産婦人科;歯科口腔外科;耳鼻咽喉科;腫瘍内科;循環器内科;女性内科;小児科;消化器外科;消化器内科;心臓血管外科;整形外科;精神科;糖尿病・血液内科;内科;内視鏡外科;乳腺外科;脳神経外科;脳神経内科;泌尿器科;皮膚科;病理診断科;放射線治療科;放射線診断科;麻酔科;臨床検査科,400,,
350001,,山口県,,下関医療センター,シモノセキイリョウセンター,病院,下関市上新地町３−３−８,,33.959072,130.92009,083-231-5811,,,,,,,,,,,アイセンター（眼科）;リハビリテーション科;緩和ケア内科;肝臓病センター;喫煙外来;血液内科;血管外科;呼吸器内科;歯科口腔外科;耳鼻咽喉科;循環器内科;消化器外科;消化器内科（消化器・肝担膵）;整形外科;精神科;総合診療科;糖尿病内分泌内科;脳神経センター（脳外・脳内）;脳神経外科;脳神経内科;泌尿器科;皮膚科;病理診断科;婦人科;放射線科;麻酔科,315,,
350001,,山口県,,西尾病院,ニシオビョウイン,病院,下関市竹崎町１−１６−３,,33.951744,130.926758,083-223-8138,,,,,,,,,,,リハビリテーション科;血液内科;呼吸器内科;内科,75,,
350001,,山口県,,長府病院,チョウフビョウイン,病院,下関市長府中之町２−４,,33.999958,130.991257,083-245-1131,,,,,,,,,,,リハビリテーション科;外科;呼吸器内科;循環器内科;消化器内科（胃腸内科）;神経内科;整形外科;内科;放射線科,60,,
350001,,山口県,,あずま病院,アズマビョウイン,病院,下関市吉見新町１−６−１７,,34.069504,130.899628,083-286-2137,,,,,,,,,,,内科,80,,
350001,,山口県,,森山病院,モリヤマビョウイン,病院,下関市宮田町２−８−２０,,33.963692,130.946213,083-231-0781,,,,,,,,,,,リハビリテーション科;消化器内科（胃腸内科）;内科;脳神経外科,86,,
350001,,山口県,,桃崎病院,モモサキビョウイン,病院,下関市田中町１−１０,,33.961121,130.940903,083-232-2533,,,,,,,,,,,リハビリテーション科;胃腸内科;外科;循環器内科;整形外科;内科;肛門外科,122,,
350001,,山口県,,下関リハビリテーション病院,シモノセキリハビリテーションビョウイン,病院,下関市今浦町９−６,,33.953362,130.921341,083-232-5811,,,,,,,,,,,リハビリテーション科;循環器内科;内科;放射線科,165,,
350001,,山口県,,武久病院,タケヒサビョウイン,病院,下関市武久町２−５３−８,,33.981216,130.917114,083-252-2124,,,,,,,,,,,リハビリテーション科;歯科;循環器内科;内科;泌尿器科;皮膚科,267,,
350001,,山口県,,岡病院,オカビョウイン,病院,下関市小月本町２−１５−２０,,34.070522,131.036469,083-282-0070,,,,,,,,,,,リハビリテーション科;外科;整形外科;内科;脳神経外科,92,,
350001,,山口県,,昭和病院,ショウワビョウイン,病院,下関市汐入町３５−１,,33.971992,130.91655,083-231-3888,,,,,,,,,,,リハビリテーション科;外科;歯科;循環器科;消化器科;神経内科;整形外科;内科;泌尿器科;皮膚科;放射線科,338,,
350001,,山口県,,安岡病院,ヤスオカビョウイン,病院,下関市横野町３−１６−３５,,34.034851,130.909927,083-258-3711,,,,,,,,,,,リハビリテーション科;緩和ケア内科;呼吸器内科;整形外科;内科;脳神経内科,234,,
350001,,山口県,,王司病院,オウジビョウイン,病院,下関市王司本町１−１８−２７,,34.040752,131.014725,083-248-3631,,,,,,,,,,,リハビリテーション科;歯科;循環器内科;消化器内科;整形外科;精神科;内科;泌尿器科;皮膚科,247,,
350001,,山口県,,豊関会記念病院,ホウカンカイキネンビョウイン,病院,下関市長府江下町２−１０,,34.012035,130.99707,083-245-2222,,,,,,,,,,,リハビリテーション科;内科,53,,
350001,,山口県,,野村病院,ノムラビョウイン,病院,下関市横野岡の下１０３８−１,,34.03598,130.916412,083-258-2737,,,,,,,,,,,,147,,
350001,,山口県,,下関市立市民病院,シモノセキシリツシミンビョウイン,病院,下関市向洋町１−１３−１,,33.966194,130.930145,083-231-4111,,,,,,,,,,,アレルギー科;ペインクリニック内科;リウマチ膠原病内科;リハビリテーション科;外科;緩和ケア内科;眼科;救急科;血液内科;呼吸器外科;呼吸器内科;産婦人科;歯科;歯科口腔外科;耳鼻咽喉科;循環器内科;小児科;小児外科;消化器外科;消化器内科;心臓血管外科;神経内科;腎臓内科;整形外科;精神科;糖尿病内分泌代謝内科;内科;乳腺外科;脳神経外科;泌尿器科;皮膚科;病理診断科;放射線治療科;放射線診断科;麻酔科,382,,
350001,,山口県,,前田内科病院,マエダナイカビョウイン,病院,下関市川中豊町７−１−３９,,33.994308,130.939896,083-254-1110,,,,,,,,,,,循環器内科;腎臓内科（人工透析）;内科,43,,
350001,,山口県,,済生会下関総合病院,サイセイカイシモノセキソウゴウビョウイン,病院,下関市安岡町８−５−１,,34.031532,130.930984,083-262-2300,,,,,,,,,,,リエゾン科（精神科）;リハビリテーション科;外科;緩和ケア内科;眼科;形成外科;呼吸器科;呼吸器外科;産婦人科;歯科口腔外科;耳鼻咽喉科;循環器科;小児科;小児外科;消化器科;消化器外科;心臓血管外科;神経内科;腎臓内科;整形外科;内科;脳神経外科;泌尿器科;皮膚科;美容外科;病理診断科;放射線科;麻酔科;肛門科;膠原病内科,373,,
350001,,山口県,,下関市立豊田中央病院,シモノセキシリツトヨタチュウオウビョウイン,病院,下関市豊田町大字矢田３６５−１,,34.202244,131.070801,083-766-1012,,,,,,,,,,,リハビリテーション科;外科;眼科;小児科;整形外科;内科;脳神経外科;泌尿器科;皮膚科,71,,
350001,,山口県,,豊北病院,ホウホクビョウイン,病院,下関市豊北町大字粟野２３９７,,34.330067,130.986771,083-785-0222,,,,,,,,,,,,58,,
350001,,山口県,,済生会豊浦病院,サイセイカイトヨウラビョウイン,病院,下関市豊浦町大字小串１０００７−３,,34.176769,130.937637,083-774-0511,,,,,,,,,,,リハビリテーション科;外科;眼科;産婦人科;耳鼻いんこう科;小児科;心療内科;神経内科;整形外科;内科;脳神経外科;泌尿器科;皮膚科,275,,
350001,,山口県,,重本病院,シゲモトビョウイン,病院,下関市豊浦町大字黒井１００９７−５０,,34.119259,130.920685,083-772-0014,,,,,,,,,,,心療内科;精神科;内科,214,,
350001,,山口県,,斎木病院,サイキ　ビョウイン,病院,長門市東深川西新開１３４,,34.388309,131.196503,0837-26-1211,,,,,,,,,,,外科;血液内科;消化器内科（胃腸内科）;整形外科;糖尿病内科（代謝内科）;内科;脳神経外科;泌尿器科;婦人科,90,,
350001,,山口県,,長門総合病院,ナガトソウゴウビョウイン,病院,長門市東深川８５,,34.385899,131.197113,0837-22-2220,,,,,,,,,,,リウマチ科;リハビリテーション科;外科;眼科;産婦人科;耳鼻いんこう科;小児科;神経内科;整形外科;内科;脳神経外科;泌尿器科;皮膚科;放射線科,305,,
350001,,山口県,,岡田病院,オカダビョウイン,病院,長門市東深川８８８,,34.377045,131.186584,0837-23-0033,,,,,,,,,,,リウマチ科;リハビリテーション科;外科;循環器内科;消化器内科;神経内科;整形外科;内科;脳神経外科;泌尿器科;皮膚科;放射線科;麻酔科;肛門外科,121,,
350001,,山口県,,三隅病院,ミスミビョウイン,病院,長門市三隅中３２４２,,34.374702,131.259842,0837-43-0711,,,,,,,,,,,歯科;精神科;内科,180,,
350001,,山口県,,福永病院,フクナガビョウイン,病院,長門市日置中２４９０,,34.374348,131.098846,0837-37-3911,,,,,,,,,,,心療内科;精神科;内科,138,,
350001,,山口県,,玉木病院,タマキビョウイン,病院,萩市瓦町１,,34.412094,131.39595,0838-22-0030,,,,,,,,,,,リハビリテーション科;外科;耳鼻いんこう科;循環器内科;消化器内科（胃腸内科）;心療内科;整形外科;内科;脳神経外科;泌尿器科;皮膚科;放射線科;肛門外科,151,,
350001,,山口県,,萩慈生病院,ハギジセイビョウイン,病院,萩市大字山田４１４７−１,,34.397305,131.382416,0838-25-6622,,,,,,,,,,,リハビリテーション科;神経内科;内科,144,,
350001,,山口県,,都志見病院,ツシミビョウイン,病院,萩市江向４１３−１,,34.406353,131.401016,0838-22-2811,,,,,,,,,,,リウマチ外来;リハビリテーション科;外科;眼科;形成外科;呼吸器外科;産婦人科;耳鼻いんこう科;循環器内科;消化器外科（胃腸外科）;消化器内科（胃腸内科）;心臓血管外科;神経内科;整形外科;内科;脳神経外科;泌尿器科;皮膚科;物忘れ外来;放射線科;麻酔科,234,,
350001,,山口県,,萩市民病院,ハギシミンビョウイン,病院,萩市大字椿３４６０−３,,34.397156,131.393066,0838-25-1200,,,,,,,,,,,リハビリテーション科;外科;呼吸器内科;循環器内科;小児科;消化器内科（胃腸内科）;神経内科;整形外科;内科;放射線科,100,,
350001,,山口県,,全眞会病院,ゼンシンカイビョウイン,病院,萩市山田西沖田４８０７−３,,34.406094,131.382889,0838-22-4106,,,,,,,,,,,リハビリテーション科;呼吸器内科;循環器内科;消化器内科（胃腸内科）;内科;放射線科,54,,
350001,,山口県,,萩病院,ハギビョウイン,病院,萩市大字堀内２７８,,34.411121,131.389343,0838-25-1498,,,,,,,,,,,心療内科;神経内科;精神科;内科,188,,
350001,,山口県,,萩むらた病院,ハギムラタビョウイン,病院,萩市大字今古萩町３０−１,,34.416702,131.402084,0838-25-9170,,,,,,,,,,,リハビリテーション科;外科;循環器内科;消化器外科（胃腸外科）;整形外科;内科;泌尿器科;肛門外科,78,,
,,,,,,,,,,,,,,,,,,,,,,,,,
,,,,,,,,,,,,,,,,,,,,,,,,,
,,,,,,,,,,,,,,,,,,,,,,,,,
,,,,,,,,,,,,,,,,,,,,,,,,,
,,,,,,,,,,,,,,,,,,,,,,,,,
