stop_id,stop_code,stop_name,stop_desc,stop_lat,stop_lon,zone_id,stop_url,location_type,platform_code,parent_station
1_01,,リフレまえだ病院前,,34.1027648261333,132.107248261857,1_01,,0,,
1_02,,リフレまえだ病院前,,34.1027398261333,132.107162547571,1_02,,0,,
2_01,,谷津上回転場,,34.1185881641,132.083457234,2_01,,0,,
3_01,,谷津上,,34.1148599482,132.080331599,3_01,,0,,
4_01,,欽明路回転場,,34.1090926996,132.112592352,4_01,,0,,
5_01,,欽明路,,34.1084577298,132.10922732,5_01,,0,,
5_02,,欽明路,,34.1084327298,132.10922732,5_02,,0,,
6_01,,谷津下,,34.1043702747,132.079507571,6_01,,0,,
7_01,,鞍掛住宅前,,34.1005162305,132.078316724,7_01,,0,,
8_01,,鞍掛,,34.0986350164,132.077550704,8_01,,0,,
9_01,,あいあいセンター,,34.0968889064,132.076974669,9_01,,0,,
10_01,,阿山上,,34.0966924855,132.074951809,10_01,,0,,
11_01,,久楽荘前,,34.0969884099,132.07329874,11_01,,0,,
12_01,,阿山北集会所前,,34.0964195462667,132.070751205381,12_01,,0,,
12_02,,阿山北集会所前,,34.0965195462667,132.070675014905,12_02,,0,,
13_01,,玖珂千束,,34.0954157929,132.066833621,13_01,,0,,
14_01,,臼田回転場,,34.1012229358,132.06332735,14_01,,0,,
15_01,,山口平成病院前,,34.1017761504333,132.05966888381,15_01,,0,,
15_02,,山口平成病院前,,34.1017094837667,132.05965936,15_02,,0,,
16_01,,臼田,,34.1005049933,132.058414206,16_01,,0,,
17_01,,臼田公会堂入口,,34.0968038482333,132.057774127571,17_01,,0,,
17_02,,臼田公会堂入口,,34.0968205149,132.057755079952,17_02,,0,,
18_01,,臼田高架下,,34.0984396077,132.055402386,18_01,,0,,
19_01,,東川,,34.0973481454,132.054732308,19_01,,0,,
20_01,,谷津下２区南,,34.0966850857,132.079145018,20_01,,0,,
21_01,,浄光寺前,,34.0945816584,132.078168566,21_01,,0,,
22_01,,萬久寺前,,34.0943795322,132.075597068,22_01,,0,,
23_01,,菅原神社前,,34.0928624798,132.072712644,23_01,,0,,
24_01,,周東千束,,34.0921866693,132.066701081,24_01,,0,,
25_01,,ザ・ビッグ周東店,,34.0903608489,132.061967954,25_01,,0,,
26_01,,千束公会堂前,,34.0922047156,132.060693518,26_01,,0,,
27_01,,総合センター日向（周東総合支所）,,34.0931100821333,132.05142904081,27_01,,0,,
27_02,,総合センター日向（周東総合支所）,,34.0930850821333,132.051467136048,27_02,,0,,
30_01,,中市,,34.0887016181,132.048167688,30_01,,0,,
33_01,,中央フード前,,34.0878787874,132.052136199,33_01,,0,,
34_01,,用田,,34.0830171758,132.04902926,34_01,,0,,
37_01,,桜づつみ公園,,34.0850475157,132.069116946,37_01,,0,,
38_01,,市成,,34.0859137758,132.074481868,38_01,,0,,
39_01,,上市上,,34.0907716366,132.057835227,39_01,,0,,
39_02,,上市上,,34.0907716366,132.057768560333,39_02,,0,,
40_01,,上市中,,34.090178186,132.054908633,40_01,,0,,
41_01,,パストラルホール,,34.0800169397333,132.048850299,41_01,,0,,
43_01,,北部ｺﾐｭﾆﾃｨｾﾝﾀｰ前,,34.1025193361,132.07997216,43_01,,0,,
44_01,,谷津下２区,,34.100535453,132.080243728,44_01,,0,,
45_01,,玖珂プール入口,,34.0991665915,132.080311231,45_01,,0,,
46_01,,善住寺前,,34.1020223297,132.082769611,46_01,,0,,
47_01,,谷津高架下,,34.1031151427,132.081555597,47_01,,0,,
48_01,,ひまわり台入口,,34.100030581,132.085029151,48_01,,0,,
50_01,,くが本町駐車場,,34.0946210485,132.080822822,50_01,,0,,
52_01,,台の橋住宅前,,34.0893843511666,132.084065589143,52_01,,0,,
52_02,,台の橋住宅前,,34.0894010178333,132.084122732,52_02,,0,,
53_01,,総合センター奏（玖珂支所）,,34.0906826595667,132.083505114571,53_01,,0,,
53_02,,総合センター奏（玖珂支所）,,34.0907276595666,132.083644162191,53_02,,0,,
54_01,,アルク玖珂店,,34.0958901106,132.087056608,54_01,,0,,
55_01,,野口下,,34.0988873631,132.089039114048,55_01,,0,,
55_02,,野口下,,34.0989849201,132.08952845,55_02,,0,,
56_01,,丈六,,34.0996553420333,132.09123870681,56_01,,0,,
56_02,,丈六,,34.0996720087,132.091229183,56_02,,0,,
57_01,,一の迫川,,34.1035429692,132.098648522,57_01,,0,,
58_01,,欽明路駅前,,34.1048472781,132.100716696,58_01,,0,,
59_01,,東部ｺﾐｭﾆﾃｨｾﾝﾀｰ前,,34.1058613213,132.102777673,59_01,,0,,
60_01,,下谷北,,34.1009780826,132.108483436,60_01,,0,,
61_01,,下谷中,,34.0994817461,132.107851628,61_01,,0,,
62_01,,下谷南,,34.0972194046,132.106487205,62_01,,0,,
63_01,,上谷,,34.1029784528,132.114030910571,63_01,,0,,
63_02,,上谷,,34.1029784528,132.11404995819,63_02,,0,,
64_01,,上谷集会所前,,34.1043255876667,132.116203080476,64_01,,0,,
64_02,,上谷集会所前,,34.104333921,132.116184032857,64_02,,0,,
65_01,,上谷東,,34.1052785217,132.119065738,65_01,,0,,
66_01,,野口,,34.0971355163,132.089340251,66_01,,0,,
67_01,,柳井田下,,34.0902954305,132.090282774,67_01,,0,,
68_01,,柳井田中,,34.0884772608,132.092661203,68_01,,0,,
69_01,,柳井田上,,34.0852533591,132.096942469,69_01,,0,,
70_01,,柳井田上公会堂前,,34.0839162024,132.099568162,70_01,,0,,
71_01,,玖珂苑前,,34.0816287705,132.0993124,71_01,,0,,
72_01,,本町上,,34.0937782753,132.083383225,72_01,,0,,
73_01,,玖珂総合公園,,34.0793805793,132.098933097,73_01,,0,,
74_01,,ｸﾞﾘｰﾝｵｱｼｽ,,34.0776357121,132.096081242,74_01,,0,,
75_01,,瀬田上北,,34.0773331544,132.086836791,75_01,,0,,
77_01,,笹見川橋北,,34.0864629661,132.080858905,77_01,,0,,
78_01,,玖珂I・C前,,34.0818783101,132.081541958,78_01,,0,,
80_01,,比叡神社参道入口,,34.1075086677,132.079119458,80_01,,0,,
81_01,,谷津上公会堂前,,34.110729705,132.079321114,81_01,,0,,
82_01,,松尾,,34.1574850078,131.97098096,82_01,,0,,
83_01,,西郷,,34.1529258196,131.972631756,83_01,,0,,
84_01,,東郷,,34.1515149563,131.974035026,84_01,,0,,
85_01,,東,,34.1461039942,131.97534598,85_01,,0,,
86_01,,野外活動センター前,,34.1363057524,131.980074338,86_01,,0,,
87_01,,郷上,,34.1333297423,131.985364451,87_01,,0,,
88_01,,落合新橋,,34.1208362587,131.976330056905,88_01,,0,,
88_02,,落合新橋,,34.1208362587,131.976425295,88_02,,0,,
89_01,,梅ノ木,,34.1150953607,131.992953102,89_01,,0,,
90_01,,川越公民館前,,34.1331442547,131.989233489,90_01,,0,,
91_01,,檜余地下,,34.10647508,131.976194385,91_01,,0,,
91_02,,檜余地下,,34.1064917466667,131.976146765952,91_02,,0,,
92_01,,菅下,,34.1305862134,131.994797515,92_01,,0,,
93_01,,上久杉,,34.1272968649,132.002344692,93_01,,0,,
94_01,,北畑,,34.1229629864,132.012233568,94_01,,0,,
95_01,,周北小学校前,,34.1257884047667,132.004792168143,95_01,,0,,
95_02,,周北小学校前,,34.1257467381,132.004649311,95_02,,0,,
96_01,,明神上,,34.1125426287,132.001968258,96_01,,0,,
97_01,,田代,,34.1133026139,132.019229449,97_01,,0,,
98_01,,小畑,,34.1090628164,132.032518879,98_01,,0,,
99_01,,下小畑,,34.1088408729,132.036146788,99_01,,0,,
99_02,,下小畑,,34.1089908729,132.035975359429,99_02,,0,,
100_01,,川上,,34.1086908298333,132.045579434857,100_01,,0,,
100_02,,川上,,34.1083574965,132.045722292,100_02,,0,,
101_01,,上中曽根,,34.0855197606,132.032892267,101_01,,0,,
102_01,,米川橋,,34.0893693697,132.033903456,102_01,,0,,
103_01,,米川小学校前,,34.0872235917,132.031057794,103_01,,0,,
104_01,,高森苑前,,34.0871326866,132.027330311,104_01,,0,,
105_01,,下中曽根,,34.0829339325,132.027360378,105_01,,0,,
106_01,,城山公園前,,34.0868922282,132.041840985,106_01,,0,,
108_01,,周防高森駅,,34.0905208302,132.046351927,108_01,,0,,
110_01,,泉町,,34.0891765896,132.05053322,110_01,,0,,
111_01,,高森小学校前,,34.0902264714,132.051833291,111_01,,0,,
113_01,,下川上,,34.1022159776334,132.050585082048,113_01,,0,,
113_02,,下川上,,34.1022576443,132.050537463,113_02,,0,,
115_01,,南方,,34.0958717199,132.050412342,115_01,,0,,
116_01,,松井医院前,,34.0888436322,132.052269817,116_01,,0,,
117_01,,久田,,34.081445212,132.056107917,117_01,,0,,
118_01,,久宗,,34.0813453832,132.062163149,118_01,,0,,
119_01,,中久宗,,34.0816698857,132.065848423,119_01,,0,,
120_01,,上久宗,,34.0799478442,132.074380302,120_01,,0,,
122_01,,周東南総合センター前,,34.078544029,132.064782244,122_01,,0,,
123_01,,栄町,,34.0777657073667,132.064096658429,123_01,,0,,
123_02,,栄町,,34.0778240407,132.064068087,123_02,,0,,
124_01,,神幡,,34.0737964317,132.062746987,124_01,,0,,
125_01,,梶屋団地前,,34.0744217915,132.055039845,125_01,,0,,
126_01,,通化寺前,,34.072100686,132.055039097,126_01,,0,,
127_01,,午王ノ内,,34.0666395767,132.057083237,127_01,,0,,
128_01,,下差川,,34.0703752819667,132.00928740481,128_01,,0,,
128_02,,下差川,,34.0703836153,132.009277881,128_02,,0,,
129_01,,井堀,,34.0716294469,132.012540326,129_01,,0,,
130_01,,米川駅前,,34.074075168,132.014578793,130_01,,0,,
131_01,,蛍橋,,34.0758295451,132.018961124,131_01,,0,,
132_01,,本田橋,,34.0738418896667,132.006673196952,132_01,,0,,
132_02,,本田橋,,34.0738418896667,132.006654149333,132_02,,0,,
133_01,,中差川,,34.0780888086,132.003842195,133_01,,0,,
134_01,,鳴川集会所前,,34.0815027333,131.997818154,134_01,,0,,
135_01,,修成小学校前,,34.089282986,132.007068421,135_01,,0,,
136_01,,中島橋,,34.0838106379,132.002857303,136_01,,0,,
137_01,,中山湖前,,34.0502545486,132.048393211,137_01,,0,,
140_01,,中田小学校前,,34.0289158078,132.052257496,140_01,,0,,
141_01,,田尻,,34.0249931146,132.058502382,141_01,,0,,
142_01,,玖珂駅,,34.0971422871,132.082494921,142_01,,0,,
674_01,,上古市,,34.1845663128,132.161162805,674_01,,0,,
147_01,,玖珂クリニック前,,34.0878321579,132.081390573,147_01,,0,,
147_02,,玖珂クリニック前,,34.0879968836,132.081523373,147_02,,0,,
152_01,,総合公園前,,34.0814070124,132.101727533,152_01,,0,,
153_01,,河郷診療所前,,34.0741126518,132.106190641,153_01,,0,,
154_01,,下東,,34.0696994647,132.098147953,154_01,,0,,
154_02,,下東,,34.0698023928,132.097600633,154_02,,0,,
665_01,,今津,,34.1643166266999,132.21502039919,665_01,,0,,
665_02,,今津,,34.1630549616333,132.215448940238,665_02,,0,,
156_01,,下祖生集会所前,,34.0685317001,132.092557533,156_01,,0,,
157_01,,西光寺（祖生天兼線）,,34.0699113621,132.083963141,157_01,,0,,
158_01,,瀬田上南,,34.0727140429,132.083198745,158_01,,0,,
666_01,,今津町四丁目,,34.1657926292,132.215998374905,666_01,,0,,
666_02,,今津町四丁目,,34.1655655887667,132.215958793476,666_02,,0,,
160_01,,今岡,,34.0647528083,132.086433664,160_01,,0,,
160_02,,今岡,,34.0653677066,132.086156717,160_02,,0,,
668_01,,錦帯橋,,34.1675471778334,132.179812680714,668_01,,0,,
668_02,,錦帯橋,,34.167423567,132.179753288286,668_02,,0,,
162_01,,四割,,34.0583110781,132.087015171,162_01,,0,,
162_02,,四割,,34.0594051428,132.088070357,162_02,,0,,
163_01,,祖生公民館前,,34.0713798091,132.11646732,163_01,,0,,
164_01,,平畑,,34.0689359733,132.12277672,164_01,,0,,
165_01,,高照寺山登山口,,34.0661242641667,132.126472668714,165_01,,0,,
165_02,,高照寺山登山口,,34.0661075975,132.126472668714,165_02,,0,,
166_01,,別所畑,,34.062261772,132.131079215,166_01,,0,,
167_01,,旧祖生東小学校前,,34.0612938983,132.133275716571,167_01,,0,,
167_02,,旧祖生東小学校前,,34.0613688983,132.133304288,167_02,,0,,
168_01,,末北,,34.0576343797,132.140180831,168_01,,0,,
169_01,,天兼,,34.0486554263,132.087146706,169_01,,0,,
170_01,,末東,,34.051658605,132.147641236,170_01,,0,,
171_01,,錦中学校前,,34.260809448,131.951110874,171_01,,0,,
172_01,,錦中央医院前,,34.2621380415,131.954639858,172_01,,0,,
173_01,,船津,,34.2637797643,131.956248223571,173_01,,0,,
173_02,,船津,,34.2637947643,131.956236795,173_02,,0,,
174_01,,広瀬,,34.2643674651,131.958317564,174_01,,0,,
175_01,,下向,,34.2646111527,131.960543840286,175_01,,0,,
175_02,,下向,,34.2646411527,131.960538126,175_02,,0,,
176_01,,錦町駅,,34.2646420702,131.962920294,176_01,,0,,
177_01,,出合橋,,34.2684310555,131.977549503,177_01,,0,,
178_01,,柳瀬橋,,34.2568069757,131.977610481,178_01,,0,,
179_01,,夏宿,,34.2538552484,131.978054217,179_01,,0,,
180_01,,川向橋,,34.2513114737,131.97849115,180_01,,0,,
181_01,,周防原,,34.2459622716667,131.978957122,181_01,,0,,
181_02,,周防原,,34.245945605,131.978957122,181_02,,0,,
182_01,,須多田橋,,34.2440761058,131.984411346,182_01,,0,,
183_01,,美川支所（診療所前）,,34.241788032,131.986217106,183_01,,0,,
670_01,,裁判所,,34.1657465025,132.191238408,670_01,,0,,
670_02,,裁判所,,34.1656176235,132.190990637,670_02,,0,,
185_01,,本郷口,,34.2397050032333,131.988029654095,185_01,,0,,
185_02,,本郷口,,34.2402883365667,131.987410606476,185_02,,0,,
185_03,,本郷口,,34.2403883365667,131.987791558857,185_03,,0,,
186_01,,下宮ノ串,,34.2382070731667,131.988345356047,186_01,,0,,
186_02,,下宮ノ串,,34.2381987398334,131.988278689381,186_02,,0,,
187_01,,河山駅,,34.2360628279,131.984171991,187_01,,0,,
188_01,,高ヶ原,,34.2276620955,131.982115122095,188_01,,0,,
188_02,,高ヶ原,,34.2276787621667,131.982115122095,188_02,,0,,
189_01,,合ノ本橋,,34.2247645082,131.985444466,189_01,,0,,
190_01,,平野口,,34.2178796968,131.992207585,190_01,,0,,
191_01,,友廻,,34.223395173,131.994258339,191_01,,0,,
192_01,,高野橋,,34.2159170227667,132.014445618048,192_01,,0,,
192_02,,高野橋,,34.2159336894333,132.014455141858,192_02,,0,,
193_01,,長走,,34.2129623655,131.991715899,193_01,,0,,
194_01,,岩屋,,34.1861491309,131.986774624,194_01,,0,,
195_01,,遠掛,,34.1830897976,131.97791861,195_01,,0,,
197_01,,柳場,,34.2143591133,131.999213744,197_01,,0,,
198_01,,渡里橋,,34.2118088554,131.998259514619,198_01,,0,,
198_02,,渡里橋,,34.2117838554,131.998307133667,198_02,,0,,
199_01,,根笠駅前,,34.2103086054,131.998007289,199_01,,0,,
200_01,,道祖基橋,,34.2063492992,131.998352554,200_01,,0,,
201_01,,上舟津,,34.2082237561,131.994492494,201_01,,0,,
202_01,,山ノ内,,34.1979385166,131.995143171,202_01,,0,,
203_01,,美川ムーバレー,,34.1889653242,131.995327551,203_01,,0,,
204_01,,中愛宕,,34.2143389903333,132.017412836238,204_01,,0,,
204_02,,中愛宕,,34.2143389903333,132.017403312429,204_02,,0,,
205_01,,東専寺前,,34.2103210545,132.028027325,205_01,,0,,
206_01,,上見錆,,34.2081435947,132.034283866,206_01,,0,,
207_01,,見錆,,34.2028441768,132.034907198,207_01,,0,,
208_01,,岡の迫口,,34.3219203013667,132.045574350571,208_01,,0,,
208_02,,岡の迫口,,34.3220036347,132.04541244581,208_02,,0,,
209_01,,周防本谷,,34.3202445999,132.043135299,209_01,,0,,
210_01,,滑口,,34.3178763886,132.043535703,210_01,,0,,
211_01,,程原,,34.3127751532,132.044669128,211_01,,0,,
212_01,,堀越橋,,34.3066629233,132.044035655,212_01,,0,,
213_01,,品秀寺前,,34.3034922049,132.04433968,213_01,,0,,
214_01,,渋人,,34.3005142003,132.04352161,214_01,,0,,
215_01,,光貞（茅原線）,,34.2984539461,132.041857177,215_01,,0,,
216_01,,上本郷,,34.2965560753,132.043051358,216_01,,0,,
217_01,,ほんごう保育園前,,34.294133752,132.042321341953,217_01,,0,,
217_02,,ほんごう保育園前,,34.2940162023667,132.042140740095,217_02,,0,,
218_01,,ほんごう保育園前（起終点、折り返し）,,34.2931305488,132.042265888,218_01,,0,,
219_01,,周防本郷,,34.2951081406,132.03934236219,219_01,,0,,
219_02,,周防本郷,,34.2950664739333,132.039323314571,219_02,,0,,
220_01,,仲田,,34.2918953627,132.038308485,220_01,,0,,
221_01,,上中山,,34.2888151095,132.037012196,221_01,,0,,
222_01,,下本郷,,34.2860135889,132.036713125,222_01,,0,,
223_01,,野尻,,34.2805407329,132.037052272,223_01,,0,,
224_01,,周防中山,,34.2756485593,132.036861141,224_01,,0,,
225_01,,西光寺前（本郷）,,34.2727038963,132.038563658,225_01,,0,,
226_01,,大久保（府谷線）,,34.2883740138,132.013679224,226_01,,0,,
227_01,,河内,,34.2895691092,132.012786453,227_01,,0,,
228_01,,新大夫,,34.290556104,132.008567077,228_01,,0,,
229_01,,長池,,34.2898397188,132.003416821,229_01,,0,,
230_01,,瀬戸,,34.2869135483,132.000991126,230_01,,0,,
231_01,,府谷,,34.2848610098,131.997293687,231_01,,0,,
232_01,,八幡橋,,34.2824258541,131.996063953,232_01,,0,,
233_01,,西村,,34.2790551271,131.995163326,233_01,,0,,
234_01,,平石,,34.2397728717,131.992176873,234_01,,0,,
238_01,,波野原,,34.2682266163667,132.041633840143,238_01,,0,,
238_02,,波野原,,34.2681932830333,132.041643363952,238_02,,0,,
239_01,,給田橋,,34.2654952534,132.040708964381,239_01,,0,,
239_02,,給田橋,,34.2655369200667,132.040699440571,239_02,,0,,
240_01,,渋谷口,,34.2424150372,132.0642604,240_01,,0,,
241_01,,瀬林,,34.2406445339,132.06152627,241_01,,0,,
243_01,,下畑出合,,34.2289576171,132.06098591,243_01,,0,,
244_01,,長野団地,,34.2285667371,132.066965181,244_01,,0,,
244_02,,長野団地,,34.2282722564333,132.066598797762,244_02,,0,,
245_01,,美和苑前,,34.2273501958,132.068718727,245_01,,0,,
245_02,,美和苑前,,34.2274954068,132.068562473,245_02,,0,,
672_01,,三笠橋,,34.1694397736333,132.223033939762,672_01,,0,,
672_02,,三笠橋,,34.1688855187667,132.222995692143,672_02,,0,,
247_01,,上獺越,,34.2622662751667,132.03717907519,247_01,,0,,
247_02,,上獺越,,34.2621254315,132.036990398,247_02,,0,,
248_01,,周防獺越,,34.2598062611667,132.034603898238,248_01,,0,,
248_02,,周防獺越,,34.2602906583333,132.034635588952,248_02,,0,,
249_01,,広瀬橋,,34.258360194,132.03286510581,249_01,,0,,
249_02,,広瀬橋,,34.258361919,132.033010399,249_02,,0,,
250_01,,波野小学校前,,34.2562645383333,132.029882492667,250_01,,0,,
250_02,,波野小学校前,,34.2557309657,132.029219359,250_02,,0,,
251_01,,上迫口,,34.2530966549,132.028599544,251_01,,0,,
252_01,,周防赤瀬,,34.2467621985,132.025416561,252_01,,0,,
253_01,,焼却場前,,34.2471879396,132.023176286,253_01,,0,,
254_01,,波野下,,34.2471254738,132.020342897619,254_01,,0,,
254_02,,波野下,,34.2471338071333,132.020247659524,254_02,,0,,
255_01,,周防尾崎,,34.2444673727,132.010246396,255_01,,0,,
256_01,,市ケ原,,34.2438669843,132.009192935571,256_01,,0,,
256_02,,市ケ原,,34.2438919843,132.009164364143,256_02,,0,,
257_01,,本山口,,34.2429015575,132.005624049,257_01,,0,,
258_01,,小壁,,34.2440352115,132.001759363,258_01,,0,,
258_02,,小壁,,34.2441018781667,132.001740315381,258_02,,0,,
259_01,,河山大野,,34.2420363181667,131.99714685619,259_01,,0,,
259_02,,河山大野,,34.2420196515,131.997127808571,259_02,,0,,
260_01,,茅原,,34.3300588611,132.040317189,260_01,,0,,
261_01,,下助,,34.3250568869,132.043453386,261_01,,0,,
262_01,,寂地登山口,,34.4378707032,132.068068845,262_01,,0,,
263_01,,常国,,34.4368638373,132.066348849952,263_01,,0,,
264_01,,的場,,34.433954085,132.063482789143,264_01,,0,,
265_01,,三和,,34.4302550455,132.061439139,265_01,,0,,
266_01,,寂地峡入口,,34.4255346973333,132.058127835714,266_01,,0,,
267_01,,神崎橋,,34.4231234724667,132.057856678714,267_01,,0,,
268_01,,澄坂,,34.4188032293,132.051870241,268_01,,0,,
269_01,,久保の畑,,34.4144106058,132.050105989,269_01,,0,,
270_01,,健康村,,34.4062464858,132.03239038,270_01,,0,,
271_01,,地蔵前,,34.3951229512667,132.021116005571,271_01,,0,,
271_02,,地蔵前,,34.3951062846,132.021144577,271_02,,0,,
675_01,,下多田,,34.1815462849667,132.165370859858,675_01,,0,,
675_02,,下多田,,34.1814788542,132.164783826048,675_02,,0,,
273_01,,向峠中,,34.3915981275,132.018162661143,273_01,,0,,
273_02,,向峠中,,34.3930488286,132.019186377,273_02,,0,,
274_01,,向峠,,34.3894451082,132.015935997,274_01,,0,,
275_01,,深谷パーキング前,,34.386969492,132.014685577,275_01,,0,,
275_02,,深谷パーキング前,,34.3847245041,132.014391669,275_02,,0,,
677_01,,市役所,,34.1671441256,132.218552451,677_01,,0,,
677_02,,市役所,,34.1669860961,132.218717007,677_02,,0,,
277_01,,深谷大橋,,34.3932500607667,132.004190875143,277_01,,0,,
277_02,,深谷大橋,,34.3932333941,132.004248018,277_02,,0,,
278_01,,深谷峡温泉,,34.3782641412,132.021978710952,278_01,,0,,
278_02,,深谷峡温泉,,34.3782641412,132.02202633,278_02,,0,,
283_01,,高根,,34.3757599958,132.022290294,283_01,,0,,
283_02,,高根,,34.3752420501,132.022064146,283_02,,0,,
284_01,,宇佐川小学校前,,34.3725782925667,132.020909597,284_01,,0,,
284_02,,宇佐川小学校前,,34.3726032925667,132.020909597,284_02,,0,,
679_03,,西岩国,,34.1633088287001,132.194762346477,679_03,,0,,
286_01,,宇佐郷,,34.3707668891,132.019142695,286_01,,0,,
286_02,,宇佐郷,,34.3718739065,132.01942965,286_02,,0,,
287_01,,浅原,,34.3682691068,132.016625957,287_01,,0,,
288_01,,小山田,,34.3608260611001,132.011445032715,288_01,,0,,
288_02,,小山田,,34.3611260611,132.011330747,288_02,,0,,
680_01,,池ヶ迫,,34.1732481358,132.183229308,680_01,,0,,
680_02,,池ヶ迫,,34.1748398037,132.183298393,680_02,,0,,
292_01,,上須川,,34.3478208135,132.002422218,292_01,,0,,
292_02,,上須川,,34.3486704641,132.002969821,292_02,,0,,
293_01,,古江,,34.3412303413333,132.000342532,293_01,,0,,
293_02,,古江,,34.341247008,132.000342532,293_02,,0,,
294_01,,沼田口,,34.3355450182,131.995494798,294_01,,0,,
295_01,,大将陣茶屋,,34.331609665,131.993956307,295_01,,0,,
296_01,,下須川,,34.3294713728,131.992467169,296_01,,0,,
297_01,,深須郵便局前,,34.3176006971,131.991180283,297_01,,0,,
298_01,,深須,,34.3149749023,131.989779598952,298_01,,0,,
298_02,,深須,,34.3149749023,131.989827218,298_02,,0,,
299_01,,雙津峡温泉,,34.3138530849667,131.988665488143,299_01,,0,,
299_02,,雙津峡温泉,,34.3133099287,131.987937847,299_02,,0,,
300_01,,掛,,34.312697391,131.983657987,300_01,,0,,
300_02,,掛,,34.3124019684,131.984597465381,300_02,,0,,
301_01,,柿木原,,34.3108090804333,131.980964289762,301_01,,0,,
301_02,,柿木原,,34.3108090804333,131.981002385,301_02,,0,,
302_01,,西橋,,34.3060692456333,131.976233501381,302_01,,0,,
302_02,,西橋,,34.3060859123,131.976252549,302_02,,0,,
303_01,,下出市,,34.2796184398,131.967839202,303_01,,0,,
304_01,,道の駅,,34.2789415692333,131.968603423762,304_01,,0,,
304_02,,道の駅,,34.2790582359,131.968641519,304_02,,0,,
305_01,,五味,,34.2728728379,131.975958639,305_01,,0,,
306_01,,坂根,,34.2744827403,131.991069113,306_01,,0,,
307_01,,稗原,,34.2883730195,131.953462349,307_01,,0,,
308_01,,上大野,,34.3221922359,131.93922623,308_01,,0,,
308_02,,上大野,,34.3209871053,131.939323367,308_02,,0,,
682_01,,大内迫,,34.1797928550667,132.180717972333,682_01,,0,,
682_02,,大内迫,,34.1799718014667,132.180184954381,682_02,,0,,
310_01,,宮の前,,34.318879716,131.940804016,310_01,,0,,
310_02,,宮の前,,34.319347622,131.940554362,310_02,,0,,
311_01,,落合（六日市線）,,34.3117600943,131.941247696,311_01,,0,,
683_01,,関戸,,34.1853059027,132.176345268,683_01,,0,,
683_02,,関戸,,34.1848441936,132.176380257,683_02,,0,,
313_01,,錦パレスホテル前,,34.3125518075,131.987412270476,313_01,,0,,
313_02,,錦パレスホテル前,,34.3121768075,131.98693608,313_02,,0,,
684_01,1,岩国駅,,34.1722660674339,132.22457801922,684_01,,0,,
684_02,2,岩国駅,,34.1722577341006,132.22458754303,684_02,,0,,
315_01,,細原,,34.2972401854,131.971353153,315_01,,0,,
316_01,,出市橋,,34.2833762999,131.966892349,316_01,,0,,
317_01,,鋳物師原,,34.2790854969,131.970568522,317_01,,0,,
318_01,,河本,,34.2781721402,131.973426839,318_01,,0,,
318_02,,河本,,34.2777216407,131.973782475,318_02,,0,,
i-295_01,,原（由宇地区バス）,,33.993205,132.204957,i-295_01,,0,,
i-295_02,,原（由宇地区バス）,,33.993079,132.20495,i-295_02,,0,,
320_01,,大野橋,,34.3150128499,131.941134148,320_01,,0,,
321_01,,下大野,,34.308989309,131.940524657,321_01,,0,,
326_01,,あさぎりの郷,,34.2554207365,131.952986975,326_01,,0,,
327_01,,久保団地前,,34.2612459371,131.948277703,327_01,,0,,
328_01,,原,,34.26159283,131.945992669,328_01,,0,,
329_01,,光ヶ原,,34.26071237,131.943218742,329_01,,0,,
330_01,,尾川,,34.2617152109,131.939352109,330_01,,0,,
334_01,,阿山地下道入口南,,34.0957619288,132.076647263,334_01,,0,,
335_01,,美和病院前,,34.219995045,132.081528861,335_01,,0,,
335_02,,美和病院前,,34.2199323134,132.081167396,335_02,,0,,
337_01,,生見川口,,34.3238030126333,132.085582289429,337_01,,0,,
i-306_01,,岡丈集会所前,,34.06416,132.09889,i-306_01,,0,,
339_01,,源内,,34.2118152352,132.144468979,339_01,,0,,
340_01,,長谷畑,,34.2093675206,132.145566223,340_01,,0,,
341_01,,秋中,,34.3231643139,132.086592033,341_01,,0,,
342_01,,秋掛,,34.3219356113,132.089338957,342_01,,0,,
343_01,,下秋掛,,34.3190733392667,132.09005853738,343_01,,0,,
344_01,,立岩口,,34.3167111133333,132.089707114048,344_01,,0,,
345_01,,美和工業前,,34.3145034749667,132.091736947429,345_01,,0,,
346_01,,野々尻,,34.3119535776,132.091984781,346_01,,0,,
347_01,,本中山,,34.3032743077,132.093664889,347_01,,0,,
348_01,,下中山,,34.3003429436,132.0946167,348_01,,0,,
349_01,,上程野,,34.2944052761,132.091516909,349_01,,0,,
350_01,,程野,,34.2907486066333,132.090122063857,350_01,,0,,
i-319_01,1,北河内駅,,34.1760115954,132.063965893,i-319_01,,0,,
352_01,,北中山,,34.2798404984333,132.08932155919,352_01,,0,,
354_01,,二ツ野口（大三郎線・病院線）,,34.2695155338,132.111327049905,354_01,,0,,
354_02,,二ツ野口（大三郎線・病院線）,,34.2694572004667,132.111346097524,354_02,,0,,
355_01,,釜ヶ原,,34.2854749992333,132.135837366,355_01,,0,,
355_02,,釜ヶ原,,34.2855166659,132.135837366,355_02,,0,,
357_01,,寺の前,,34.283548067,132.137049308762,357_01,,0,,
357_02,,寺の前,,34.2835147336667,132.137115975429,357_02,,0,,
358_01,,下釜ヶ原,,34.281419152,132.137245078,358_01,,0,,
360_01,,大三郎口,,34.2739555703,132.133600659,360_01,,0,,
361_01,,大三郎,,34.2700383143,132.132636112333,361_01,,0,,
361_02,,大三郎,,34.2700383143,132.132626588524,361_02,,0,,
362_01,,大田原分,,34.3072560097,132.08007151,362_01,,0,,
363_01,,二ツ野口,,34.2681629607,132.091905362,363_01,,0,,
364_01,,貞清,,34.2661527027334,132.089950779667,364_01,,0,,
365_01,,長角,,34.2590524743,132.090447098,365_01,,0,,
366_01,,金山口,,34.2570276102,132.09117816,366_01,,0,,
367_01,,上中村,,34.2516892988,132.090830818,367_01,,0,,
368_01,,下中村,,34.2473839717,132.086729452,368_01,,0,,
369_01,,生見ｲｷｲｷｾﾝﾀｰ前,,34.2445286126667,132.083912892048,369_01,,0,,
370_01,,志谷,,34.2427779368,132.081292343048,370_01,,0,,
371_01,,友重,,34.2377068731,132.081416090381,371_01,,0,,
372_01,,上長野,,34.2306633723667,132.080148942048,372_01,,0,,
373_01,,上駄床,,34.2671909594,132.110212446952,373_01,,0,,
373_02,,上駄床,,34.2672076260667,132.110241018381,373_02,,0,,
374_01,,駄床,,34.2639018659333,132.110436349619,374_01,,0,,
374_02,,駄床,,34.2639101992667,132.110445873429,374_02,,0,,
375_01,,斧谷,,34.2577756655,132.107071627,375_01,,0,,
376_01,,金山口,,34.2551338318,132.105783791048,376_01,,0,,
376_02,,金山口,,34.2551504984667,132.105755219619,376_02,,0,,
377_01,,上中村,,34.2494094662,132.104625968,377_01,,0,,
378_01,,中村,,34.2456634698667,132.104660593286,378_01,,0,,
378_02,,中村,,34.2456551365333,132.104689164714,378_02,,0,,
379_01,,田ノ口,,34.2398701387,132.103519603857,379_01,,0,,
379_02,,田ノ口,,34.2398701387,132.103605318143,379_02,,0,,
380_01,,下田ノ口,,34.2368965035,132.103842906,380_01,,0,,
381_01,,たこうぶし,,34.2337014271,132.104662241,381_01,,0,,
382_01,,坂上,,34.2264246771333,132.103487706286,382_01,,0,,
382_02,,坂上,,34.2264663438,132.103487706286,382_02,,0,,
383_01,,上佐坂,,34.2253929534,132.10559169,383_01,,0,,
383_02,,上佐坂,,34.2255375238,132.105865436,383_02,,0,,
i-352_01,1,二鹿体育館,,34.1569194356,132.057845446,i-352_01,,0,,
385_01,,下迫,,34.224118485,132.098765143,385_01,,0,,
385_02,,下迫,,34.2242892071,132.099729151381,385_02,,0,,
386_01,,小田口,,34.2233038936667,132.095743280571,386_01,,0,,
386_02,,小田口,,34.223233472,132.096164252095,386_02,,0,,
387_01,,向原口,,34.2230212988,132.09128264,387_01,,0,,
388_01,,名坪,,34.2229068675,132.088514479,388_01,,0,,
388_02,,名坪,,34.2228450874333,132.088823519619,388_02,,0,,
389_01,,ﾊｰﾓﾆｰみわ,,34.2222531048,132.087079895,389_01,,0,,
390_01,,坂上分校前,,34.2218156706,132.08518276,390_01,,0,,
i-359_01,1,１号橋,,34.1508697466,132.061611719,i-359_01,,0,,
392_01,,下佐坂,,34.2346493386,132.12179503,392_01,,0,,
392_02,,下佐坂,,34.2346601937333,132.121947054714,392_02,,0,,
393_01,,下大根川,,34.2329416228,132.126412933,393_01,,0,,
393_02,,下大根川,,34.2335508062,132.127186508,393_02,,0,,
394_01,,中佐坂,,34.2309551582,132.11510129,394_01,,0,,
395_01,,佐坂,,34.2291501458,132.110902525,395_01,,0,,
395_02,,佐坂,,34.2290717035,132.111233442,395_02,,0,,
396_01,,上大根川,,34.2260486818,132.126311904,396_01,,0,,
396_02,,上大根川,,34.2259982323,132.126431867,396_02,,0,,
i-365_01,1,相ノ谷,,34.1371820758,132.061255449,i-365_01,,0,,
i-366_01,1,伊房,,34.1445259099,132.077818536,i-366_01,,0,,
399_01,,中村（松尾線・病院線）,,34.2186035659,132.139092015,399_01,,0,,
399_02,,中村（松尾線・病院線）,,34.2185702325667,132.139053919762,399_02,,0,,
400_01,,下大田原,,34.3126498949,132.073834048,400_01,,0,,
401_01,,大田原,,34.3088362429,132.071132186429,401_01,,0,,
402_01,,秋中釜ヶ原,,34.306581151,132.064688641,402_01,,0,,
403_01,,本郷分,,34.3048149576,132.067314403,403_01,,0,,
404_01,,立岩,,34.3014787976,132.075472232,404_01,,0,,
405_01,,片山,,34.2890538039,132.068032815,405_01,,0,,
406_01,,阿賀西,,34.2818390737,132.069241317,406_01,,0,,
407_01,,阿賀ふれあいセンター,,34.2796719115,132.069083833,407_01,,0,,
408_01,,上湯ノ迫,,34.2794543066,132.064051176,408_01,,0,,
409_01,,下湯ノ迫,,34.2760083265,132.063990308,409_01,,0,,
410_01,,郷,,34.2734859531,132.066911536,410_01,,0,,
411_01,,下郷,,34.2693087796,132.068514157,411_01,,0,,
412_01,,三分一,,34.2644720079,132.064365613,412_01,,0,,
413_01,,上仏原,,34.2611018082,132.064263495,413_01,,0,,
414_01,,賀見畑,,34.2565630119,132.065618116,414_01,,0,,
416_01,,迫口,,34.2513742902,132.066254377,416_01,,0,,
417_01,,岡口,,34.2468661595,132.067103202,417_01,,0,,
421_01,,柿ノ木原,,34.2268834402,132.058725702,421_01,,0,,
422_01,,足谷口,,34.2230686678,132.057329883,422_01,,0,,
423_01,,中長野,,34.226613691,132.079597955,423_01,,0,,
i-388_01,1,竹安,,34.150814862,132.092526412,i-388_01,,0,,
425_01,,鮎谷,,34.2209565364,132.07789369,425_01,,0,,
426_01,,わかば台,,34.2147874465,132.01391729,426_01,,0,,
427_01,,上柏川,,34.2104342716,132.021157807,427_01,,0,,
428_01,,南桑本町,,34.2095141602,132.023963891,428_01,,0,,
429_01,,上椋野,,34.1976371517,132.031940943,429_01,,0,,
430_01,,下椋野,,34.1936717473667,132.034879423666,430_01,,0,,
430_02,,下椋野,,34.1936300807,132.03482228081,430_02,,0,,
431_01,,小郷橋,,34.1907329888,132.037690749,431_01,,0,,
i-396_01,1,河内電話交換所,,34.1529581271,132.099716301,i-396_01,,0,,
433_01,,向畑,,34.2045739322,132.058981377,433_01,,0,,
434_01,,長浴,,34.2021778923333,132.056796045048,434_01,,0,,
434_02,,長浴,,34.202194559,132.056834140286,434_02,,0,,
435_01,,寺山,,34.0328428066,132.161466752,435_01,,0,,
436_01,,長田公会堂前,,34.0293281412,132.159964646,436_01,,0,,
436_02,,長田公会堂前,,34.0287231397,132.15861852981,436_02,,0,,
i-401_01,1,上田公会堂,,34.1528378881,132.106394212,i-401_01,,0,,
438_01,,みどり病院前,,34.0266592405,132.155890399048,438_01,,0,,
438_02,,みどり病院前,,34.0266592405,132.15584278,438_02,,0,,
439_01,,長田,,34.0278531952,132.162154909,439_01,,0,,
440_01,,岩倉,,34.0243080972667,132.16178746581,440_01,,0,,
440_02,,岩倉,,34.0242914306,132.161777942,440_02,,0,,
441_01,,老人福祉センター前,,34.0293559909333,132.16628267219,441_01,,0,,
441_02,,老人福祉センター前,,34.0293976576,132.166292196,441_02,,0,,
442_01,,横吹,,34.0338694128,132.156206066,442_01,,0,,
442_02,,横吹,,34.0338860794667,132.156225113619,442_02,,0,,
443_01,,笠塚カープ練習場前,,34.0354830761,132.147547595,443_01,,0,,
444_01,,千鳥橋,,34.0469068336,132.212621952,444_01,,0,,
444_02,,千鳥橋,,34.0469399612,132.212760394,444_02,,0,,
445_01,,由宇駅前,,34.0431884026,132.213079716,445_01,,0,,
445_02,,由宇駅前,,34.0430255991,132.213243715,445_02,,0,,
446_01,,にこにこちどり園前,,34.0436289131,132.215228485,446_01,,0,,
447_01,,ゆうたん前,,34.0406770030667,132.21501300519,447_01,,0,,
447_02,,ゆうたん前,,34.0406603364,132.215022529,447_02,,0,,
448_01,,由宇崎,,34.0366485105,132.216593963,448_01,,0,,
449_01,,千鳥ヶ丘病院前,,34.0368389184,132.213417188,449_01,,0,,
450_01,,千鳥ヶ丘東,,34.0351757921,132.213431437,450_01,,0,,
450_02,,千鳥ヶ丘東,,34.0350591254333,132.213250484619,450_02,,0,,
451_01,,千鳥ヶ丘中,,34.0327144192,132.214034266,451_01,,0,,
452_01,,清華保育園前,,34.0332788835,132.211981396,452_01,,0,,
453_01,,有家,,34.0296303405,132.217444488,453_01,,0,,
453_02,,有家,,34.0297979356,132.217482057,453_02,,0,,
454_01,,西有家,,34.0261315394,132.210364771,454_01,,0,,
455_01,,大畑,,34.0190794496,132.207188288,455_01,,0,,
i-420_01,1,行正集会所,,34.1496532028,132.110257849,i-420_01,,0,,
i-421_01,1,橋詰橋,,34.145126702,132.114707162,i-421_01,,0,,
458_01,,銭壺山登山口,,34.0160804585,132.209398363,458_01,,0,,
i-423_01,1,宮前橋,,34.1433632485,132.12078143,i-423_01,,0,,
460_01,,岡田,,34.0068141882,132.207433847,460_01,,0,,
461_01,,平床,,34.0029925848,132.20400751,461_01,,0,,
462_01,,平原,,34.0005268048,132.200351762,462_01,,0,,
463_01,,千歳橋,,34.0461618341,132.207228027,463_01,,0,,
464_01,,由宇中学校前,,34.0452515296,132.201772824,464_01,,0,,
465_01,,慈雲院前,,34.0453060609,132.198172471,465_01,,0,,
466_01,,三軒屋,,34.0438224946,132.192161834,466_01,,0,,
467_01,,生屋,,34.0446957195,132.187827942,467_01,,0,,
468_01,,寺迫,,34.042838184,132.183974418,468_01,,0,,
469_01,,横道,,34.0387321884667,132.17799277619,469_01,,0,,
469_02,,横道,,34.0387155218,132.1780023,469_02,,0,,
470_01,,由西小前,,34.0364018279,132.176578064,470_01,,0,,
471_01,,貞清,,34.03176921,132.170550526,471_01,,0,,
472_01,,由宇温泉,,34.0301061424,132.167926427,472_01,,0,,
i-437_01,1,神之内,,34.1590663755221,132.150652375607,i-437_01,,0,,
i-438_01,1,新岩国駅,,34.1648146317265,132.149410512825,i-438_01,,0,,
i-439_01,1,新岩国駅,,34.1650232483376,132.148908939739,i-439_01,,0,,
476_01,,舟木公会堂前,,33.9971048737,132.198689206,476_01,,0,,
477_01,,舟木,,33.9933633353,132.19722032,477_01,,0,,
i-442_01,1,沖市,,34.1683455093476,132.152521875297,i-442_01,,0,,
i-442_02,2,沖市,,34.1682079166335,132.152524557506,i-442_02,,0,,
480_01,,毛明,,34.1214147709,131.974369776,480_01,,0,,
481_01,,毛明上,,34.1192669443,131.967338378,481_01,,0,,
482_01,,檜余地,,34.1068905749,131.974576550238,482_01,,0,,
482_02,,檜余地,,34.1068905749,131.974538455,482_02,,0,,
483_01,,明神下,,34.1082585658,132.003317035,483_01,,0,,
484_01,,中野口,,34.1031593179,132.001263405,484_01,,0,,
484_02,,中野口,,34.1031843179001,132.001320547857,484_02,,0,,
485_01,,上長野（毛明線）,,34.0981214871,132.004356896,485_01,,0,,
486_01,,椎尾,,34.096725335,131.994027697,486_01,,0,,
487_01,,東長野,,34.090218558,132.005185826,487_01,,0,,
i-452_01,1,御庄大橋,,34.1696348753511,132.156483498001,i-452_01,,0,,
i-452_02,2,御庄大橋,,34.1694284893485,132.156400349523,i-452_02,,0,,
i-453_01,,岩国インターバスターミナル,,34.1756421964,132.162448301,i-453_01,,0,,
i-453_02,2,岩国インターバスターミナル,,34.1740551342653,132.161708036941,i-453_02,,0,,
i-454_01,1,下多田,,34.1815880143755,132.165349511279,i-454_01,,0,,
i-454_02,2,下多田,,34.1807636687097,132.164736762609,i-454_02,,0,,
i-455_01,1,椎尾神社,,34.1657344387,132.18232986,i-455_01,,0,,
i-455_02,2,椎尾神社,,34.166135907438,132.181652616698,i-455_02,,0,,
i-456_01,1,新町,,34.1646844769257,132.183857392507,i-456_01,,0,,
i-456_02,2,新町,,34.1648198560537,132.183543574051,i-456_02,,0,,
494_01,,周防坂上,,34.2247813795,132.102709622,494_01,,0,,
494_02,,周防坂上,,34.2246663215333,132.10193276119,494_02,,0,,
i-458_01,1,錦見,,34.1652015796473,132.186405491059,i-458_01,,0,,
i-458_02,2,錦見,,34.1650928329869,132.186314295954,i-458_02,,0,,
i-459_01,,東錦見,,34.1647244248846,132.197343539425,i-459_01,,0,,
i-459_02,,東錦見,,34.1644270340368,132.196233104898,i-459_02,,0,,
497_01,,日宛,,34.2206796062,132.123585237,497_01,,0,,
497_02,,日宛,,34.2211072799,132.123471383,497_02,,0,,
498_01,,平原口,,34.2198849881,132.128620109,498_01,,0,,
498_02,,平原口,,34.2197540477,132.128524658,498_02,,0,,
499_01,,下長谷,,34.2213338757,132.131766786,499_01,,0,,
499_02,,下長谷,,34.2213592883,132.132362639,499_02,,0,,
500_01,,上長谷,,34.2155633038,132.140687943,500_01,,0,,
500_02,,上長谷,,34.215163671,132.140877568714,500_02,,0,,
501_01,,六呂谷,,34.2844348132,132.087934253,501_01,,0,,
502_01,,美和総合支所前,,34.2247977446,132.077757458,502_01,,0,,
502_02,,美和総合支所前,,34.2244657983,132.077782771,502_02,,0,,
503_01,,サンマート美和店,,34.2225559944,132.089694607,503_01,,0,,
i-467_01,1,浄水場,,34.1630754460283,132.200629245473,i-467_01,,0,,
i-467_02,2,浄水場,,34.1632663119822,132.200296651562,i-467_02,,0,,
i-468_01,1,水道局,,34.161311025177,132.203855942922,i-468_01,,0,,
i-468_02,2,水道局,,34.1612000540817,132.203936409191,i-468_02,,0,,
506_01,,黒瀬橋,,34.2076040528667,132.060252480857,506_01,,0,,
506_02,,黒瀬橋,,34.2079159764,132.060149889,506_02,,0,,
i-470_01,1,関所,,34.1602214213927,132.206429019547,i-470_01,,0,,
i-470_02,2,関所,,34.1603745632409,132.20582552253,i-470_02,,0,,
i-471_01,1,八幡,,34.1602014463469,132.210701778517,i-471_01,,0,,
i-471_02,2,八幡,,34.1602857853901,132.210886850936,i-471_02,,0,,
i-472_01,1,天神町,,34.1622211213738,132.213228419412,i-472_01,,0,,
i-472_02,2,天神町,,34.1622721674784,132.213421538457,i-472_02,,0,,
510_01,,中垣内,,34.2384829934,132.125983337,510_01,,0,,
510_02,,中垣内,,34.2381922961334,132.125827307524,510_02,,0,,
510_03,,中垣内,,34.2381172961333,132.126303498,510_03,,0,,
i-474_01,,六呂師口,,34.1338808926,132.150699692,i-474_01,,0,,
512_01,,黒沢,,34.2406897999,132.12734732,512_01,,0,,
512_02,,黒沢,,34.2410086754,132.12777277319,512_02,,0,,
i-476_01,,流田,,34.1023109978,132.133707024,i-476_01,,0,,
514_01,,日光寺山団地,,34.2410087938,132.130923615,514_01,,0,,
514_02,,日光寺山団地,,34.2413352301,132.13145011,514_02,,0,,
i-478_01,,叶木,,34.0966206952,132.140063893,i-478_01,,0,,
516_01,,岸根,,34.2420344709,132.133612061,516_01,,0,,
516_02,,岸根,,34.2415355573,132.133701277,516_02,,0,,
i-480_01,,滝の下,,34.0934290385,132.153715497,i-480_01,,0,,
i-481_01,,大藤,,34.0985612727,132.16108341,i-481_01,,0,,
519_01,,百合谷口,,34.2363746819,132.139934257,519_01,,0,,
519_02,,百合谷口,,34.236139593,132.14056102,519_02,,0,,
520_01,,百合谷,,34.231107002,132.140456412,520_01,,0,,
521_01,,倉屋原,,34.2239004045,132.135353279,521_01,,0,,
522_01,,長谷源内,,34.2110128751333,132.146362218333,522_01,,0,,
523_01,,畑,,34.2066561438,132.143444192,523_01,,0,,
524_01,,日宛坂本,,34.2187471234,132.123537273,524_01,,0,,
525_01,,白滝,,34.2456225142,132.132312628,525_01,,0,,
526_01,,瀬戸ノ内下,,34.2419667505,132.117006688,526_01,,0,,
527_01,,瀬戸ノ内上,,34.2442497774333,132.114911809286,527_01,,0,,
527_02,,瀬戸ノ内上,,34.2442164441,132.114949904524,527_02,,0,,
528_01,,滑,,34.236746808,132.122340821,528_01,,0,,
529_01,,湯ノ迫,,34.2787809047,132.062117111,529_01,,0,,
530_01,,渋谷下,,34.2448880157,132.062519341286,530_01,,0,,
531_01,,渋谷中,,34.2496169915,132.058390727,531_01,,0,,
532_01,,渋谷上,,34.2506206828,132.054335521,532_01,,0,,
533_01,,根木ノ骨,,34.3409710806,132.069971316,533_01,,0,,
534_01,,段子原,,34.334689563,132.069742902,534_01,,0,,
535_01,,上ヶ原,,34.3318798811,132.070514162,535_01,,0,,
536_01,,教会前,,34.3227515996,132.089155105,536_01,,0,,
537_01,,秋中分れ,,34.3216967233,132.091411962,537_01,,0,,
538_01,,亀尾川,,34.3300969608,132.100483682,538_01,,0,,
539_01,,大谷,,34.332732351,132.101839234,539_01,,0,,
540_01,,牛ヶ多和東,,34.2668256395,132.084436334,540_01,,0,,
541_01,,牛ヶ多和西,,34.2631035259,132.082150778,541_01,,0,,
542_01,,湯屋,,34.2481468471,132.079264622,542_01,,0,,
543_01,,生見川下,,34.3349695688,132.086687,543_01,,0,,
544_01,,生見川上,,34.3368322863,132.086243863,544_01,,0,,
545_01,,二ツ野迫,,34.2746505665,132.102238551,545_01,,0,,
546_01,,下城,,34.2790659851,132.100579746,546_01,,0,,
547_01,,二ツ野上,,34.2816902782,132.103435532,547_01,,0,,
548_01,,大峠上,,34.2883885684,132.102237083,548_01,,0,,
549_01,,大峠下,,34.2859714812,132.098814712,549_01,,0,,
550_01,,光貞（錦中央病院線）,,34.2989748389,132.041996764,550_01,,0,,
i-514_01,,火打岩,,34.0893331604,132.174252601,i-514_01,,0,,
i-514_02,,火打岩,,34.0893831604,132.174252601,i-514_02,,0,,
i-515_01,,畑（叶木線）,,34.0746738084,132.180067229,i-515_01,,0,,
i-516_01,,松尾谷川,,34.0761629223,132.187690141,i-516_01,,0,,
i-517_01,,本呂尾橋,,34.0760896128,132.191594423,i-517_01,,0,,
i-518_01,,松崎公会堂,,34.0765707372,132.194817575,i-518_01,,0,,
i-519_01,,乗越橋,,34.0753622714,132.202262738,i-519_01,,0,,
557_01,,石ヶ明神,,34.0906125022,131.985488511,557_01,,0,,
558_01,,本郷渋谷,,34.2626486149,132.027689599,558_01,,0,,
559_01,,渋谷集会所前,,34.2680918738,132.023504152,559_01,,0,,
560_01,,立木下,,34.2539477021,131.992714718,560_01,,0,,
562_01,,東谷,,34.2576522779,131.999103798,562_01,,0,,
563_01,,東谷上,,34.2596239164,132.000937799,563_01,,0,,
564_01,,椋蔵口,,34.2618894404,131.996679965,564_01,,0,,
565_01,,椋蔵,,34.2625142068,131.994912512,565_01,,0,,
566_01,,峯鳴,,34.2661608903,131.996830895,566_01,,0,,
567_01,,西谷,,34.2647898027334,131.998294346,567_01,,0,,
567_02,,西谷,,34.2647314694,131.998256250762,567_02,,0,,
568_01,,高ヶ原（国道）,,34.2299859177,131.983779461,568_01,,0,,
573_01,,高野,,34.2174084339,132.014699192,573_01,,0,,
574_01,,迫田橋,,34.2191158677,132.017124771,574_01,,0,,
575_01,,白岩,,34.2241580772,132.022155135,575_01,,0,,
576_01,,赤羽根,,34.2292138519,132.028202719,576_01,,0,,
577_01,,郷ノ原,,34.234347941,132.031439171,577_01,,0,,
578_01,,伊田川,,34.2376516893,132.036245565,578_01,,0,,
579_01,,中垣内（伊田川・滝山・見錆線）,,34.2366845253,132.034614162,579_01,,0,,
580_01,,椋野駅前,,34.1934176072,132.03368135381,580_01,,0,,
580_02,,椋野駅前,,34.1934176072,132.03367183,580_02,,0,,
581_01,,下滝山,,34.1889496468,132.026994515286,581_01,,0,,
581_02,,下滝山,,34.1889396468,132.026977372429,581_02,,0,,
582_01,,上滝山,,34.1893044427,132.023952578857,582_01,,0,,
582_02,,上滝山,,34.1893294427,132.023975436,582_02,,0,,
583_01,,上滝山上,,34.1897258299,132.02278056,583_01,,0,,
584_01,,見錆口,,34.2025169839,132.035828538,584_01,,0,,
584_02,,見錆口,,34.2024753172333,132.03583806181,584_02,,0,,
585_01,,見錆奥,,34.2008515957,132.036111066,585_01,,0,,
590_01,,佐手,,34.2120899749,132.025108385,590_01,,0,,
591_01,,佐手上,,34.2139910962,132.027260435,591_01,,0,,
i-554_01,,通津公民館,,34.0714829653,132.207320916,i-554_01,,0,,
i-554_02,,通津公民館,,34.0712402803,132.207234125,i-554_02,,0,,
i-555_01,,両全橋,,34.0732342899,132.208170705096,i-555_01,,0,,
i-555_02,,両全橋,,34.0727422293,132.208266911667,i-555_02,,0,,
594_01,,錦総合支所,,34.2628281904,131.959901109714,594_01,,0,,
594_02,,錦総合支所,,34.2626281904,131.959786824,594_02,,0,,
612_01,,下有仏谷,,34.2364437769,131.959667216,612_01,,0,,
613_01,,有仏谷,,34.2351498253,131.969292243,613_01,,0,,
614_01,,崩ヶ谷,,34.2260958393,131.961762054143,614_01,,0,,
614_02,,崩ヶ谷,,34.2260958393,131.961819197,614_02,,0,,
615_01,,鳴谷,,34.2163225844,131.962868997,615_01,,0,,
616_01,,郷（野谷線）,,34.2136608263,131.9462374,616_01,,0,,
617_01,,三分一（野谷線）,,34.2187176528,131.948508947,617_01,,0,,
618_01,,四分一,,34.2248139861,131.943589817,618_01,,0,,
620_01,,由宇中学校正門,,34.0464204422,132.200922943,620_01,,0,,
i-581_01,,浪の浦,,34.0790315820667,132.208506163857,i-581_01,,0,,
i-581_02,,浪の浦,,34.0786954562334,132.208621449714,i-581_02,,0,,
i-583_01,,保津南,,34.0821772294,132.208406465,i-583_01,,0,,
i-583_02,,保津南,,34.081028825,132.208212919,i-583_02,,0,,
625_01,,水尻,,34.0197803671,132.218046052857,625_01,,0,,
625_02,,水尻,,34.0197492482,132.218080263,625_02,,0,,
626_01,,田高多,,34.0150894836,132.216593574,626_01,,0,,
626_02,,田高多,,34.0149832308,132.216697021,626_02,,0,,
627_01,,城ヶ崎,,34.0088627902,132.214600453,627_01,,0,,
627_02,,城ヶ崎,,34.008523906,132.214742522,627_02,,0,,
628_01,,神代駅前,,33.9982825993,132.209297219,628_01,,0,,
628_02,,神代駅前,,33.9981062481,132.209279919,628_02,,0,,
629_01,,公門所,,33.990764361,132.202415116,629_01,,0,,
629_02,,公門所,,33.9907946933,132.202594919,629_02,,0,,
630_01,,相地,,33.9846431074,132.200001418,630_01,,0,,
630_02,,相地,,33.9847388415,132.200068885,630_02,,0,,
631_01,,美和小学校前,,34.2274173653,132.077216436,631_01,,0,,
632_01,,下長野,,34.2248125502,132.070955862,632_01,,0,,
i-592_01,,保津,,34.0876999671,132.208604558,i-592_01,,0,,
i-592_02,,保津,,34.0869140517,132.208819165,i-592_02,,0,,
i-595_01,,保津団地,,34.0901053537,132.207135063048,i-595_01,,0,,
i-595_02,,保津団地,,34.0897289462333,132.20755190719,i-595_02,,0,,
637_01,,瀬田上,,34.0775557192,132.081925732,637_01,,0,,
637_02,,瀬田上,,34.0774738377333,132.082070103524,637_02,,0,,
638_01,,サンマート広瀬店前,,34.2626492488667,131.960969948286,638_01,,0,,
638_02,,サンマート広瀬店前,,34.2626275822,131.960764234,638_02,,0,,
639_01,,上長谷（病院線）,,34.2172498739,132.140956473,639_01,,0,,
640_01,,川上団地,,34.1063701792,132.047382278,640_01,,0,,
640_02,,川上団地,,34.1063951792,132.047439420857,640_02,,0,,
i-600_01,,萩原口,,34.094969035,132.20461671,i-600_01,,0,,
i-600_02,,萩原口,,34.0942337801,132.205176998,i-600_02,,0,,
643_01,,上阿品,,34.1835354926,132.143148262048,643_01,,0,,
643_02,,上阿品,,34.184025596,132.14190574,643_02,,0,,
644_01,,潮風公園,,34.0334997442333,132.217571263905,644_01,,0,,
647_01,,傍示,,34.32756746113,131.94199356325,647_01,,0,,
647_02,,傍示,,34.32801008142,131.94215051941,647_02,,0,,
i-606_01,,青木,,34.0993994052,132.203321122571,i-606_01,,0,,
i-606_02,,青木,,34.0988090814666,132.203840106667,i-606_02,,0,,
649_01,,畑（六日市線）,,34.3335207974578,131.945216240857,649_01,,0,,
649_02,,畑（六日市線）,,34.3338013452016,131.945168564613,649_02,,0,,
i-608_01,,黒磯,,34.1034726002,132.201994437,i-608_01,,0,,
i-608_02,,黒磯,,34.1030118907,132.202267592,i-608_02,,0,,
651_01,,幸地,,34.3357261141818,131.945441231391,651_01,,0,,
651_02,,幸地,,34.335753190397,131.945246020239,651_02,,0,,
i-610_01,,藤生港,,34.1088671052,132.199662778,i-610_01,,0,,
i-610_02,,藤生港,,34.1088509147,132.199854843,i-610_02,,0,,
653_01,,亀原,,34.34045683801,131.94360424539,653_01,,0,,
653_02,,亀原,,34.3413353386,131.94282641822,653_02,,0,,
i-612_01,,藤生駅,,34.1125296885667,132.199672369048,i-612_01,,0,,
i-612_02,,藤生駅,,34.1122281626334,132.199845559333,i-612_02,,0,,
655_01,,立河内上,,34.34390922843,131.94667709631,655_01,,0,,
655_02,,立河内上,,34.34397679864,131.94664029784,655_02,,0,,
i-614_01,,丸子,,34.1164018222,132.198963911,i-614_01,,0,,
i-614_02,,丸子,,34.1163560752,132.199099179,i-614_02,,0,,
657_01,,立河内,,34.34775377943,131.9480299596,657_01,,0,,
657_02,,立河内,,34.34831423768,131.947398228,657_02,,0,,
i-616_01,,灘小学校,,34.1206337484667,132.199931831381,i-616_01,,0,,
i-616_02,,灘小学校,,34.1209977224667,132.200357541143,i-616_02,,0,,
659_01,,上尾真田,,34.35140783334,131.94196668434,659_01,,0,,
661_01,,蔵木口,,34.35290249937,131.93905289181,661_01,,0,,
661_02,,蔵木口,,34.35287051276,131.93899627039,661_02,,0,,
i-619_01,,郷ケ崎,,34.1236521174,132.199796554,i-619_01,,0,,
i-619_02,,郷ケ崎,,34.1242978755,132.199685684,i-619_02,,0,,
663_01,,六日市駅,,34.35246992226,131.93599384124,663_01,,0,,
663_02,,六日市駅,,34.3523032555933,131.93618431743,663_02,,0,,
664_01,,大原,,34.0209737567933,132.155166631851,664_01,,0,,
664_02,,大原,,34.0210070901267,132.155147584232,664_02,,0,,
i-622_01,,恵美須,,34.1267478637,132.199112687,i-622_01,,0,,
i-622_02,,恵美須,,34.1266225886,132.199272985,i-622_02,,0,,
i-623_01,,東洋紡,,34.1292707699,132.199622686238,i-623_01,,0,,
i-623_02,,東洋紡,,34.1295969227,132.199808807,i-623_02,,0,,
i-624_01,,ゆめタウン南岩国,,34.1330913566,132.202978769,i-624_01,,0,,
i-624_02,,ゆめタウン南岩国,,34.1332083012,132.20325931,i-624_02,,0,,
i-625_01,,南岩国駅,,34.1364042067,132.20653625381,i-625_01,,0,,
i-625_02,,南岩国駅,,34.1358735047,132.206168281048,i-625_02,,0,,
i-626_01,,高水学園,,34.1385330109,132.208068845524,i-626_01,,0,,
i-626_02,,高水学園,,34.1381076122,132.207956897333,i-626_02,,0,,
i-627_01,,愛宕１丁目,,34.1397521222,132.208354514,i-627_01,,0,,
i-627_02,,愛宕１丁目,,34.1403923099,132.207667042,i-627_02,,0,,
i-628_01,,岩国医療センター,,34.1436301316,132.20341453,i-628_01,,0,,
i-629_01,,尾津,,34.1422304959,132.211527016,i-629_01,,0,,
i-629_02,,尾津,,34.1424115752,132.211915092,i-629_02,,0,,
i-630_01,,愛宕供用会館,,34.1464839091,132.212427733381,i-630_01,,0,,
i-630_02,,愛宕供用会館,,34.1467470725666,132.212681117809,i-630_02,,0,,
i-631_01,,門前,,34.1492928946,132.213163107476,i-631_01,,0,,
i-631_02,,門前,,34.1491552991,132.213170646286,i-631_02,,0,,
i-632_01,,鰯場,,34.1522190175,132.215392813,i-632_01,,0,,
i-632_02,,鰯場,,34.1524531338,132.215465716,i-632_02,,0,,
i-633_01,,大薮,,34.156423764,132.216215804619,i-633_01,,0,,
i-633_02,,大薮,,34.1559160462,132.216189321952,i-633_02,,0,,
i-634_01,,寿橋,,34.1589893355,132.21687214,i-634_01,,0,,
i-634_02,,寿橋,,34.1596246073,132.217077716,i-634_02,,0,,
i-635_01,,小川津,,34.2278786885,132.176130333,i-635_01,,0,,
i-636_01,,亀ケ迫,,34.2184039304,132.178787229,i-636_01,,0,,
i-637_01,,柏山口,,34.2139418431333,132.183334971905,i-637_01,,0,,
i-637_02,,柏山口,,34.2139335098,132.18323021,i-637_02,,0,,
i-638_01,,樋の口,,34.2105533732,132.184410488,i-638_01,,0,,
i-639_01,,上迫,,34.2013280733,132.179688351,i-639_01,,0,,
i-640_01,,丸田,,34.1982746115,132.161714212,i-640_01,,0,,
i-641_01,,沼田原口,,34.2105021812,132.167498164,i-641_01,,0,,
i-642_01,,持ケ峠,,34.215006707,132.166014739,i-642_01,,0,,
i-643_01,,中阿品,,34.1856782141,132.137008435,i-643_01,,0,,
i-644_01,,下阿品,,34.187302091,132.130974059,i-644_01,,0,,
i-645_01,,六呂師,,34.10258,132.162311,i-645_01,,0,,
i-646_01,,神之内,,34.159039,132.150648,i-646_01,,0,,
i-647_01,,大畠,,34.156813,132.152174,i-647_01,,0,,
i-648_01,,思案橋,,34.149924,132.154378,i-648_01,,0,,
i-649_01,,柱野駅,,34.143304,132.153112,i-649_01,,0,,
i-650_01,,下市橋,,34.137958,132.150706,i-650_01,,0,,
i-651_01,,師木野郵便局,,34.135578,132.149234,i-651_01,,0,,
i-652_01,,柱野,,34.132222,132.1475,i-652_01,,0,,
i-653_01,,六呂師口,,34.133885,132.150672,i-653_01,,0,,
i-654_01,,大藤,,34.098611,132.161111,i-654_01,,0,,
i-655_01,,落合,,34.104247,132.171932,i-655_01,,0,,
i-656_01,,高畑,,34.108792,132.171977,i-656_01,,0,,
i-657_01,,降端,,34.111644,132.162958,i-657_01,,0,,
i-658_01,,下畑,,34.122155,132.163018,i-658_01,,0,,
i-659_01,,黒瀬,,34.210912,132.062553,i-659_01,,0,,
i-660_01,,旧西畑小学校前,,34.214544,132.072679,i-660_01,,0,,
i-661_01,,妙見山休憩所前,,34.214069,132.080248,i-661_01,,0,,
i-662_01,,東谷老人憩いの家前,,34.217451,132.084711,i-662_01,,0,,
i-663_01,,坂上駐在所跡,,34.225453,132.103837,i-663_01,,0,,
i-664_01,,日宛西,,34.21656,132.121139,i-664_01,,0,,
i-665_01,,美和総合支所,,34.223937,132.078535,i-665_01,,0,,
