都道府県コード又は市区町村コード,NO,都道府県名,市区町村名,名称,名称_カナ,名称_通称,POIコード,住所,方書,緯度,経度,電話番号,内線番号,法人番号,団体名,利用可能曜日,開始時間,終了時間,利用可能日時特記事項,説明,バリアフリー情報,URL,備考
353442,1,山口県,平生町,平生町役場,,,,山口県熊毛郡平生町大字平生町210-1,,33.937969,132.073057,(0820)56-7111,,,,,,,,役場庁舎,,,
353442,2,山口県,平生町,平生町役場佐賀出張所,,,,山口県熊毛郡平生町大字佐賀1525-1,,33.893369,132.083107,(0820)58-0211,,,,,,,,役場庁舎,,,
353442,3,山口県,平生町,平生町保健センター,,,,山口県熊毛郡平生町大字平生村178,,33.937665,132.074508,(0820)56-7141,,,,,,,,役場庁舎,,,
353442,4,山口県,平生町,平生町勤労青少年ホーム,,,,山口県熊毛郡平生町大字平生村178,,33.93793,132.075038,(0820)56-4219,,,,,,,,社会教育施設,,,
353442,5,山口県,平生町,平生町音楽道場,,,,山口県熊毛郡平生町大字平生村241-2,,33.939176,132.077117,(0820)56-6262,,,,,,,,社会教育施設,,,
